TIME_StartTime,BATT_VFilt,BATT_CFilt,BATT_Discharged,BATT_Remaining,BATT_RemainingV,BATT_Warning
1292188078,46.9771614074707,3.4604969024658203,3538.90869140625,0.7639968991279602,0.7099237442016602,0
1293200433,46.58898162841797,9.984210968017578,3542.56103515625,0.7637686729431152,0.7112033367156982,0
1294206266,45.3067512512207,32.22670364379883,3556.207763671875,0.7629157304763794,0.7209451198577881,0
1295225070,44.71220397949219,41.537757873535156,3569.902587890625,0.7620598077774048,0.7233021855354309,0
1295225070,44.71220397949219,41.537757873535156,3569.902587890625,0.7620598077774048,0.7233021855354309,0
1296227843,44.39969253540039,45.59935760498047,3583.42578125,0.7612146139144897,0.7224990129470825,0
1297246786,44.18720626831055,48.03107452392578,3597.557373046875,0.760331392288208,0.7220862507820129,0
1298247717,44.04178237915039,49.312286376953125,3611.5087890625,0.759459376335144,0.7210695743560791,0
1299266357,43.91371154785156,50.26390075683594,3625.9833984375,0.7585547566413879,0.7195910215377808,0
1300276998,43.82756042480469,50.50918960571289,3640.1982421875,0.7576663494110107,0.7175600528717041,0
1301277026,43.752010345458984,50.547908782958984,3654.224365234375,0.7567896842956543,0.7148234248161316,0
1302294770,43.6668815612793,50.89187240600586,3668.580322265625,0.7558924555778503,0.7127292156219482,0
1303314542,43.60799789428711,51.29230499267578,3683.18408203125,0.7549797296524048,0.7136052250862122,0
1304329410,43.54177474975586,51.420074462890625,3697.640869140625,0.7540761232376099,0.7114831209182739,0
1305335446,43.50221252441406,51.15407180786133,3711.921630859375,0.7531836032867432,0.70931476354599,0
1306336041,43.483978271484375,50.833900451660156,3725.979248046875,0.7523050308227539,0.7087685465812683,0
1307343976,43.46238708496094,50.52150344848633,3740.136962890625,0.7514201402664185,0.70760577917099,0
1308374135,43.41515350341797,50.53145217895508,3754.51708984375,0.7505214214324951,0.7054755091667175,0
1309379450,43.39616012573242,50.236820220947266,3768.511962890625,0.7496467232704163,0.7041054964065552,0
1310392417,43.36768341064453,50.23653030395508,3782.602783203125,0.7487660646438599,0.7034193873405457,0
1311407334,43.33579635620117,50.19990921020508,3796.717041015625,0.7478839159011841,0.7019324898719788,0
1312425614,43.30538558959961,50.20095443725586,3810.9638671875,0.7469934821128845,0.7006713151931763,0
1313433336,43.277095794677734,50.16722869873047,3825.0888671875,0.7461106777191162,0.699253499507904,0
1314445404,43.258243560791016,49.76279067993164,3839.0,0.7452412247657776,0.6962006688117981,0
1315459417,43.233489990234375,49.62993240356445,3852.877685546875,0.7443738579750061,0.6940825581550598,0
1316474812,43.442848205566406,45.24885559082031,3865.175048828125,0.7436052560806274,0.6894190907478333,0
1317493188,43.032283782958984,52.97624588012695,3881.468017578125,0.7425869703292847,0.6964194774627686,0
1318512911,42.64875793457031,60.97703552246094,3899.956298828125,0.741431474685669,0.7094921469688416,0
1319514964,41.76351547241211,80.50482177734375,3926.169189453125,0.7397931218147278,0.7461642026901245,0
1320530321,41.34206008911133,89.02873229980469,3953.0068359375,0.7381157875061035,0.7632316946983337,0
1321537387,41.332481384277344,88.71984100341797,3978.002197265625,0.7365535497665405,0.7672876715660095,0
1322540598,41.50178909301758,83.98948669433594,4000.323974609375,0.7351584434509277,0.7605001926422119,0
1323556192,41.6386833190918,80.65397644042969,4022.60986328125,0.7337656021118164,0.7583925724029541,0
1324559325,42.25270462036133,68.46563720703125,4040.309326171875,0.7326593399047852,0.7490570545196533,0
1325581955,43.37824630737305,44.03993606567383,4046.422119140625,0.7322773337364197,0.7096026539802551,0
1326588769,43.051517486572266,52.20619201660156,4063.228515625,0.731226921081543,0.7263047099113464,0
1327604769,42.90314865112305,55.77886199951172,4079.38916015625,0.7302168607711792,0.7328692674636841,0
1328619626,43.02821731567383,52.22004699707031,4093.755859375,0.7293189764022827,0.7226845622062683,0
1329622542,43.08794021606445,51.18213653564453,4107.51806640625,0.728458821773529,0.7211687564849854,0
1330630000,42.978111267089844,53.54439163208008,4123.00537109375,0.7274909019470215,0.7240780591964722,0
1331640696,42.8419303894043,56.403892517089844,4139.41357421875,0.7264653444290161,0.7277917861938477,0
1332647313,42.90467834472656,54.58101272583008,4154.318359375,0.7255338430404663,0.7224283218383789,0
1333655810,42.884891510009766,54.56467819213867,4169.77099609375,0.7245680093765259,0.7199293971061707,0
1334673427,42.94047546386719,53.21677780151367,4184.41064453125,0.7236530780792236,0.7167084813117981,0
1335676158,43.19704818725586,47.07905197143555,4196.466796875,0.7228995561599731,0.7032707929611206,0
1336683578,43.393611907958984,42.377193450927734,4207.470703125,0.7222117781639099,0.691965639591217,0
1337686005,43.267887115478516,46.151573181152344,4220.7236328125,0.7213834524154663,0.7010427117347717,0
1338705831,43.35400390625,43.64263153076172,4232.83935546875,0.7206262350082397,0.6925330758094788,0
1339713506,43.43917465209961,41.75027847290039,4244.1416015625,0.7199198603630066,0.6874901652336121,0
1340716350,43.44994354248047,41.7602424621582,4255.67578125,0.7191989421844482,0.6868782043457031,0
1341734895,43.438453674316406,42.3491325378418,4267.94775390625,0.7184319496154785,0.6879323124885559,0
1342756512,43.450843811035156,41.87713623046875,4279.82421875,0.7176896929740906,0.68466717004776,0
1343761434,43.49309158325195,41.24370193481445,4291.1494140625,0.7169818878173828,0.6836549043655396,0
1344776565,43.44167709350586,42.495452880859375,4303.4189453125,0.7162150144577026,0.6849198937416077,0
1345778242,43.41874313354492,42.66730499267578,4315.38330078125,0.7154672145843506,0.6825054883956909,0
1346798396,43.363521575927734,44.092220306396484,4328.1064453125,0.7146720886230469,0.6849483847618103,0
1347812949,43.06460952758789,51.41069030761719,4343.97021484375,0.7136805653572083,0.7005484700202942,0
1348820842,43.00099563598633,52.20919418334961,4358.94677734375,0.7127445340156555,0.6996270418167114,0
1349839704,42.87381362915039,54.362613677978516,4374.4423828125,0.7117760181427002,0.7006565928459167,0
1350846637,42.85728454589844,54.14573287963867,4389.62109375,0.7108273506164551,0.6984067559242249,0
1351860169,42.70492172241211,57.066768646240234,4406.2587890625,0.7097875475883484,0.7021840214729309,0
1352860770,43.022762298583984,48.62290954589844,4418.5712890625,0.7090179920196533,0.6820619106292725,0
1353863610,43.35908126831055,40.769718170166016,4428.38525390625,0.7084046602249146,0.6660405397415161,0
1354867347,43.564754486083984,36.49757766723633,4437.61328125,0.7078278660774231,0.6584393978118896,0
1355881429,43.743167877197266,32.83369827270508,4446.20751953125,0.707290768623352,0.6513904929161072,0
1356892118,43.854225158691406,31.12961769104004,4454.544921875,0.7067696452140808,0.6495420932769775,0
1357915007,43.89952087402344,31.00005531311035,4462.9697265625,0.706243097782135,0.6507385969161987,0
1358931449,43.76909255981445,34.33819580078125,4473.7177734375,0.7055713534355164,0.6565254926681519,0
1359938212,43.77389144897461,34.8200569152832,4483.49072265625,0.7049605250358582,0.6586176753044128,0
1360959943,43.66679382324219,37.357933044433594,4494.39794921875,0.704278826713562,0.6622322797775269,0
1361975339,43.45492935180664,42.32963562011719,4507.43701171875,0.7034639120101929,0.6713879108428955,0
1362991662,43.321624755859375,44.98382568359375,4520.80810546875,0.7026281952857971,0.6746436357498169,0
1363998044,43.53166580200195,39.43484115600586,4530.654296875,0.7020127773284912,0.660816490650177,0
1365009385,43.76239776611328,34.11623001098633,4539.18603515625,0.7014795541763306,0.6499410271644592,0
1366013481,43.80272674560547,33.453285217285156,4548.22705078125,0.7009145021438599,0.6484730243682861,0
1367035292,43.79864501953125,33.78402328491211,4557.90625,0.7003095746040344,0.6488392949104309,0
1368047077,43.7901725769043,33.86629104614258,4567.544921875,0.6997071504592896,0.6472049355506897,0
1369053694,43.8853759765625,32.11691665649414,4576.15771484375,0.699168860912323,0.6448751091957092,0
1370055396,43.90486526489258,32.17958450317383,4584.9921875,0.6986166834831238,0.646077036857605,0
1371070839,43.81296157836914,34.550296783447266,4595.103515625,0.6979846954345703,0.6506484150886536,0
1372082172,43.66530227661133,37.5120964050293,4606.23779296875,0.6972888708114624,0.6535708904266357,0
1373088985,43.66451644897461,37.48501205444336,4616.8017578125,0.6966285705566406,0.6531838178634644,0
1374104582,43.735836029052734,35.570430755615234,4626.42431640625,0.6960271596908569,0.6480295658111572,0
1375107723,43.83658218383789,33.32447814941406,4635.43359375,0.6954641342163086,0.6436417698860168,0
1376109943,44.0018424987793,29.431777954101562,4642.85498046875,0.6950002908706665,0.6349082589149475,0
1377125685,44.09549331665039,27.507797241210938,4650.1591796875,0.694543719291687,0.6308644413948059,0
1378145422,44.10905838012695,27.431657791137695,4657.90869140625,0.6940593719482422,0.6301887035369873,0
1379156415,44.048828125,29.379323959350586,4666.46533203125,0.6935245990753174,0.6351100206375122,0
1380166058,44.006229400634766,30.610933303833008,4675.2509765625,0.6929755210876465,0.6376218795776367,0
1381177707,43.96113204956055,31.729887008666992,4684.52783203125,0.6923956871032715,0.6395245790481567,0
1382195869,43.95825958251953,31.529510498046875,4693.33642578125,0.691845178604126,0.6372700929641724,0
1383208063,43.912025451660156,32.77647399902344,4702.79052734375,0.6912542581558228,0.6400732398033142,0
1384222921,43.8006477355957,35.52218246459961,4713.2373046875,0.6906013488769531,0.6459786295890808,0
1385237528,43.66133117675781,38.547935485839844,4724.62158203125,0.6898898482322693,0.6511889696121216,0
1386240256,43.640045166015625,38.51884078979492,4735.4638671875,0.6892122030258179,0.6494061946868896,0
1386240256,43.640045166015625,38.51884078979492,4735.4638671875,0.6892122030258179,0.6494061946868896,0
1387250935,43.68062210083008,37.37752914428711,4745.75927734375,0.6885687112808228,0.6468995213508606,0
1388255660,43.71181106567383,36.37085723876953,4755.60009765625,0.6879537105560303,0.6439566016197205,0
1389273516,43.674076080322266,37.5460090637207,4766.484375,0.6872734427452087,0.64793461561203,0
1390289257,43.57387924194336,39.951168060302734,4778.2509765625,0.6865379810333252,0.6535249352455139,0
1391299925,43.543190002441406,40.02950668334961,4789.521484375,0.6858335733413696,0.6514453887939453,0
1392306720,43.55488204956055,38.957489013671875,4800.244140625,0.6851634383201599,0.64622962474823,0
1393310251,43.73522186279297,34.71912384033203,4809.1591796875,0.6846062541007996,0.6381823420524597,0
1394328675,43.92565155029297,30.444515228271484,4816.8583984375,0.6841250658035278,0.6300764083862305,0
1395331583,44.00212097167969,28.782262802124023,4824.54541015625,0.6836446523666382,0.6263872981071472,0
1396345837,44.111751556396484,26.39328384399414,4831.453125,0.6832128763198853,0.62120521068573,0
1397357416,44.11671447753906,26.62145233154297,4838.96728515625,0.6827432513237,0.6217925548553467,0
1398373830,44.04640197753906,28.556657791137695,4847.400390625,0.6822161674499512,0.6256730556488037,0
1399384396,44.03254318237305,28.88016700744629,4855.52734375,0.6817082166671753,0.6253933310508728,0
1400391097,44.011470794677734,29.678726196289062,4863.96630859375,0.6811808347702026,0.6277239918708801,0
1401413838,44.083251953125,27.884727478027344,4871.6123046875,0.6807029247283936,0.6230365037918091,0
1402429771,44.160526275634766,26.1751766204834,4878.68505859375,0.6802608966827393,0.6191945672035217,0
1403441367,44.17319869995117,26.24483299255371,4886.0341796875,0.6798015832901001,0.6199916005134583,0
1404447007,44.17052459716797,26.360015869140625,4893.3427734375,0.6793447732925415,0.6195085048675537,0
1405453335,44.14809036254883,27.048580169677734,4901.1005859375,0.6788599491119385,0.6208260655403137,0
1406476109,44.215415954589844,25.37624168395996,4908.08251953125,0.6784235239028931,0.6163737177848816,0
1407495976,44.24287414550781,24.946931838989258,4914.9013671875,0.677997350692749,0.6154801845550537,0
1408499833,44.33206558227539,22.891878128051758,4921.08935546875,0.6776106357574463,0.6107613444328308,0
1409502106,44.59110641479492,16.897327423095703,4924.4794921875,0.6773987412452698,0.5977692008018494,0
1410522051,44.570457458496094,18.12357521057129,4929.732421875,0.6770704388618469,0.6015322804450989,0
1411540521,44.43964385986328,21.525083541870117,4936.59423828125,0.676641583442688,0.6082996726036072,0
1412544347,44.368385314941406,23.540735244750977,4943.484375,0.6762109398841858,0.6129816770553589,0
1413563013,44.35275650024414,23.727066040039062,4950.32470703125,0.6757833957672119,0.6119549870491028,0
1414570931,44.38215637207031,23.080137252807617,4956.64013671875,0.6753886938095093,0.610314667224884,0
1415572889,44.37946701049805,23.140893936157227,4963.0927734375,0.674985408782959,0.6098721623420715,0
1416592389,44.416805267333984,22.185779571533203,4969.07080078125,0.6746118068695068,0.6070011854171753,0
1417606858,44.40874099731445,22.709321975708008,4975.6787109375,0.6741987466812134,0.6090326309204102,0
1418617740,44.38752365112305,23.212831497192383,4982.28857421875,0.6737856864929199,0.609574019908905,0
1419624527,44.39783477783203,23.17279624938965,4988.75537109375,0.673381507396698,0.6101102828979492,0
1420631369,44.35984420776367,24.30286407470703,4995.73291015625,0.6729453802108765,0.613134503364563,0
1421635105,44.31916046142578,24.990407943725586,5002.900390625,0.6724973917007446,0.6131977438926697,0
1422641563,44.234771728515625,26.65789794921875,5010.65625,0.6720126867294312,0.6150545477867126,0
1423647600,44.28996658325195,25.25997543334961,5017.60400390625,0.6715784668922424,0.6121019721031189,0
1424655819,44.38727951049805,22.9282283782959,5023.4267578125,0.6712145805358887,0.6071191430091858,0
1425671321,44.3513298034668,23.77276611328125,5030.388671875,0.6707794070243835,0.608478307723999,0
1426677743,44.42609786987305,22.159698486328125,5036.12451171875,0.6704208850860596,0.6056151986122131,0
1427697177,44.445560455322266,21.945314407348633,5042.4716796875,0.6700242161750793,0.6059545874595642,0
1428699836,44.386444091796875,23.808975219726562,5049.28369140625,0.6695984601974487,0.6114128828048706,0
1429719120,44.259883880615234,26.664766311645508,5057.38134765625,0.6690924167633057,0.616540789604187,0
1430721382,44.14202880859375,29.027578353881836,5065.939453125,0.6685575246810913,0.6198318004608154,0
1431741501,44.081573486328125,30.459272384643555,5074.93994140625,0.6679949760437012,0.6236148476600647,0
1432745228,44.09956359863281,29.41316032409668,5082.91259765625,0.6674966812133789,0.6194854378700256,0
1433763117,44.20353698730469,26.503488540649414,5089.92724609375,0.6670582294464111,0.6120993494987488,0
1434782923,44.253013610839844,25.359201431274414,5096.77001953125,0.6666306257247925,0.6099037528038025,0
1435789567,44.21125411987305,26.412858963012695,5104.326171875,0.6661583185195923,0.6123311519622803,0
1436812144,44.19425964355469,27.062480926513672,5112.11328125,0.6656715869903564,0.6149379014968872,0
1437831560,44.097999572753906,29.189714431762695,5120.85302734375,0.6651253700256348,0.6188719868659973,0
1438851073,44.03290557861328,30.215002059936523,5129.6083984375,0.6645781993865967,0.6191256642341614,0
1439865641,43.9791259765625,31.628084182739258,5138.8583984375,0.6640000343322754,0.6234593987464905,0
1440877348,43.996185302734375,30.918519973754883,5147.38427734375,0.6634671688079834,0.6214292049407959,0
1441891359,43.94620895385742,31.70928192138672,5156.3994140625,0.6629037857055664,0.6218809485435486,0
1442906881,43.942176818847656,31.41868782043457,5165.30078125,0.6623474359512329,0.6202628016471863,0
1443909558,43.93428421020508,31.305524826049805,5174.06201171875,0.6617998480796814,0.6193324327468872,0
1444916701,44.035675048828125,28.936437606811523,5181.69921875,0.6613224744796753,0.6151459813117981,0
1445931436,44.089664459228516,27.7535400390625,5189.21630859375,0.6608526706695557,0.6132500171661377,0
1446939591,44.09775924682617,27.30047607421875,5196.818359375,0.660377562046051,0.6110159754753113,0
1447942026,44.11857223510742,26.704166412353516,5204.12353515625,0.6599209904670715,0.6091504693031311,0
1448961214,44.115577697753906,26.640613555908203,5211.72021484375,0.6594462394714355,0.6081647872924805,0
1449975710,44.149845123291016,26.06751823425293,5218.845703125,0.6590008735656738,0.607808530330658,0
1450983380,44.08151626586914,27.627071380615234,5226.9453125,0.6584945917129517,0.6104671955108643,0
1451989995,44.01021957397461,29.168479919433594,5235.33349609375,0.6579703688621521,0.6129353046417236,0
1453005379,43.96560287475586,30.07772445678711,5244.1240234375,0.6574209928512573,0.6144145131111145,0
1454009465,43.93445587158203,30.693763732910156,5252.67822265625,0.6568863391876221,0.6154347658157349,0
1455014655,43.888648986816406,31.42893409729004,5261.69482421875,0.6563227772712708,0.6158007383346558,0
1456035079,43.92621612548828,30.202369689941406,5269.98876953125,0.6558043956756592,0.6122011542320251,0
1457053164,43.964385986328125,29.360918045043945,5278.0859375,0.6552983522415161,0.6110562086105347,0
1458056547,43.9249153137207,30.145633697509766,5286.61669921875,0.6547651290893555,0.6121030449867249,0
1459070616,43.95808410644531,29.22586441040039,5294.76513671875,0.6542558670043945,0.6098330616950989,0
1460078121,44.017730712890625,27.776798248291016,5302.19775390625,0.6537913084030151,0.6067383885383606,0
1461089567,44.07175064086914,26.482194900512695,5309.31005859375,0.653346836566925,0.6037604808807373,0
1462092372,44.02325439453125,27.674182891845703,5317.29541015625,0.6528477668762207,0.6060265302658081,0
1463100663,43.97142028808594,28.656356811523438,5325.5380859375,0.6523325443267822,0.6067525148391724,0
1464118915,43.96033477783203,28.883190155029297,5333.74853515625,0.6518194675445557,0.607117235660553,0
1465138789,43.97174072265625,28.43927574157715,5341.7431640625,0.6513197422027588,0.6054465770721436,0
1466156498,43.98523712158203,28.018840789794922,5349.4921875,0.6508354544639587,0.6040635704994202,0
1467164121,44.022483825683594,27.07464027404785,5356.98974609375,0.6503668427467346,0.6017791032791138,0
1468178944,43.99466323852539,27.58858299255371,5364.755859375,0.6498814821243286,0.6018636226654053,0
1469198158,43.93317413330078,29.031822204589844,5373.29638671875,0.6493476629257202,0.604658842086792,0
1470209496,43.94512939453125,28.67397689819336,5381.28759765625,0.6488482356071472,0.6036946177482605,0
1471224075,43.94907760620117,28.414573669433594,5389.22900390625,0.6483519077301025,0.6024449467658997,0
1472230919,43.973960876464844,27.59609031677246,5396.8046875,0.6478784084320068,0.5996692180633545,0
1473253545,43.893028259277344,29.46518898010254,5405.517578125,0.6473338603973389,0.6031609773635864,0
1474273421,43.95897674560547,27.951343536376953,5413.19970703125,0.6468536853790283,0.6004692912101746,0
1475281268,43.98677062988281,26.937694549560547,5420.49853515625,0.646397590637207,0.5966392159461975,0
1476280678,44.0860481262207,24.3267765045166,5426.95361328125,0.6459940671920776,0.5898535251617432,0
1477294471,44.091148376464844,24.42200469970703,5433.67236328125,0.6455742120742798,0.5902812480926514,0
1478308244,44.023921966552734,26.327545166015625,5441.4931640625,0.6450853943824768,0.5951229929924011,0
1479315125,43.983856201171875,27.1793270111084,5449.30224609375,0.6445972919464111,0.5962015986442566,0
1480334566,44.02122497558594,26.17108917236328,5456.4951171875,0.6441477537155151,0.5934954881668091,0
1481346208,43.9300537109375,28.322071075439453,5464.74609375,0.6436320543289185,0.5975903272628784,0
1482362254,43.82780456542969,30.451906204223633,5473.9052734375,0.6430596113204956,0.6008472442626953,0
1483373501,43.70502471923828,33.55158233642578,5483.900390625,0.6424349546432495,0.608646810054779,0
1484376675,43.618412017822266,34.948280334472656,5493.861328125,0.6418123841285706,0.609440803527832,0
1485381468,43.489952087402344,37.00614929199219,5504.68017578125,0.6411361694335938,0.6102514266967773,0
1486393961,43.419246673583984,38.80495071411133,5515.88330078125,0.6404359936714172,0.6159412860870361,0
1487397151,43.3223991394043,40.55732345581055,5527.56591796875,0.6397058367729187,0.6186733245849609,0
1488407408,43.045413970947266,47.40311050415039,5541.9306640625,0.638808012008667,0.6357840299606323,0
1489414854,42.86865234375,50.55855941772461,5556.7724609375,0.6378804445266724,0.6403138041496277,0
1490426375,42.78489303588867,51.94459533691406,5571.83056640625,0.636939287185669,0.6436468958854675,0
1491428951,42.959346771240234,46.79156494140625,5583.59228515625,0.636204183101654,0.6311416625976562,0
1492447748,42.932090759277344,46.82645034790039,5596.75634765625,0.6353814601898193,0.6302663087844849,0
1493451693,42.949832916259766,46.091182708740234,5609.271484375,0.6345992088317871,0.629009485244751,0
1494470207,42.9490852355957,45.16925811767578,5622.3466796875,0.6337820291519165,0.6245493292808533,0
1495485352,42.9933967590332,43.88233184814453,5634.38525390625,0.6330296397209167,0.6220176219940186,0
1496484704,43.07640075683594,41.183746337890625,5645.27587890625,0.6323489546775818,0.6139276027679443,0
1497496486,43.131988525390625,39.34910583496094,5656.04150390625,0.6316760778427124,0.6081579923629761,0
1498510262,43.260379791259766,36.03288650512695,5665.490234375,0.6310855746269226,0.6000476479530334,0
1499512670,43.281455993652344,35.28617858886719,5675.0546875,0.6304877996444702,0.59670490026474,0
1500532204,43.2718620300293,35.45397186279297,5685.10791015625,0.629859447479248,0.5962181091308594,0
1501539681,43.27107620239258,35.68779373168945,5695.1904296875,0.6292293071746826,0.5972046256065369,0
1502546474,43.27978515625,35.20246505737305,5705.009765625,0.6286156177520752,0.5944710969924927,0
1503563179,43.25287628173828,36.10561752319336,5715.2255859375,0.6279771327972412,0.5970373153686523,0
1504574153,43.20869445800781,37.039703369140625,5725.884765625,0.6273108720779419,0.5982034206390381,0
1505592874,43.23422622680664,35.932861328125,5735.787109375,0.6266920566558838,0.5933851599693298,0
1506599301,43.215309143066406,36.26074981689453,5745.96484375,0.626055896282196,0.5932567119598389,0
1507618016,43.20446014404297,36.59532165527344,5756.412109375,0.6254029273986816,0.59409499168396,0
1508638028,43.143741607666016,38.21218490600586,5767.46142578125,0.624712347984314,0.5980671644210815,0
1509647769,43.1070556640625,39.000457763671875,5778.63330078125,0.624014139175415,0.599524199962616,0
1510663504,43.130775451660156,37.995887756347656,5789.09765625,0.6233600974082947,0.595641016960144,0
1511679170,43.13549041748047,37.12596893310547,5799.36474609375,0.6227184534072876,0.5903767347335815,0
1512681408,43.16358184814453,36.193111419677734,5809.3740234375,0.6220928430557251,0.5871449708938599,0
1513688613,43.283180236816406,32.87822341918945,5817.9365234375,0.6215577125549316,0.577861487865448,0
1514692233,43.39664840698242,30.290943145751953,5825.84326171875,0.6210634708404541,0.5721349716186523,0
1515694879,43.40684127807617,30.268957138061523,5834.22509765625,0.620539665222168,0.5719638466835022,0
1516694928,43.420047760009766,30.306621551513672,5842.62646484375,0.6200145483016968,0.5726171135902405,0
1517708260,43.4378662109375,29.772907257080078,5850.89794921875,0.6194975972175598,0.5700186491012573,0
1518724133,43.473636627197266,28.6680908203125,5858.72705078125,0.6190083026885986,0.5654628276824951,0
1519734857,43.4626350402832,28.96282196044922,5866.9853515625,0.6184921264648438,0.5651817321777344,0
1520745467,43.48154067993164,28.67729377746582,5874.97216796875,0.6179929375648499,0.5643841624259949,0
1521749246,43.5285758972168,27.759302139282227,5882.57861328125,0.6175175309181213,0.562536895275116,0
1522759900,43.60779571533203,25.89605712890625,5889.44384765625,0.6170884370803833,0.557701826095581,0
1523779916,43.57506561279297,26.920936584472656,5897.20361328125,0.6166034936904907,0.55967116355896,0
1524788479,43.603919982910156,26.382495880126953,5904.52685546875,0.6161457896232605,0.558282732963562,0
1525796884,43.5557861328125,27.621417999267578,5912.447265625,0.6156507730484009,0.5603369474411011,0
1526816865,43.54829406738281,27.883865356445312,5920.3955078125,0.6151540279388428,0.5605640411376953,0
1527831390,43.42380905151367,30.915897369384766,5929.59716796875,0.6145788431167603,0.5665916800498962,0
1527831390,43.42380905151367,30.915897369384766,5929.59716796875,0.6145788431167603,0.5665916800498962,0
1528847416,43.33629608154297,33.04269790649414,5939.4287109375,0.6139644384384155,0.5712459087371826,0
1529866063,43.38597106933594,31.415481567382812,5948.0419921875,0.6134260892868042,0.56617671251297,0
1530877742,43.518516540527344,28.215232849121094,5955.37451171875,0.6129677891731262,0.559319794178009,0
1531887778,43.56198501586914,27.084163665771484,5962.65380859375,0.6125128269195557,0.5559184551239014,0
1532907180,43.49073028564453,28.48702049255371,5970.98876953125,0.6119918823242188,0.5567896962165833,0
1533909860,43.450035095214844,29.57267189025879,5979.46240234375,0.6114622950553894,0.5592724680900574,0
1534913826,43.492332458496094,28.623645782470703,5987.3046875,0.6109721660614014,0.5573918223381042,0
1535924342,43.43370819091797,29.797409057617188,5995.81396484375,0.6104403734207153,0.5584492087364197,0
1536931288,43.39973068237305,30.514768600463867,6004.4140625,0.6099028587341309,0.5594388246536255,0
1537934895,43.335662841796875,31.901376724243164,6013.67578125,0.6093239784240723,0.5617672801017761,0
1538945639,43.35932159423828,31.22266387939453,6022.34619140625,0.6087820529937744,0.560119092464447,0
1539956438,43.410621643066406,29.66901969909668,6030.3544921875,0.6082815527915955,0.5554459691047668,0
1540972180,43.42021560668945,29.720853805541992,6038.70068359375,0.607759952545166,0.5567224025726318,0
1541978947,43.42960739135742,29.35565757751465,6046.85302734375,0.6072503924369812,0.5551703572273254,0
1542995002,43.350460052490234,31.30432891845703,6055.96826171875,0.606680691242218,0.5593484044075012,0
1543997234,43.2884635925293,32.58378601074219,6065.29296875,0.606097936630249,0.5613110065460205,0
1545004605,43.3193244934082,31.942373275756836,6074.21240234375,0.60554039478302,0.5608381628990173,0
1546015307,43.355445861816406,30.60114860534668,6082.61279296875,0.6050153970718384,0.5560756325721741,0
1547034587,43.40583801269531,28.764577865600586,6090.37744140625,0.6045300960540771,0.5492105484008789,0
1548041463,43.42974090576172,28.24378204345703,6098.0986328125,0.6040475368499756,0.5480170845985413,0
1549048983,43.38801956176758,29.074668884277344,6106.505859375,0.6035220623016357,0.5486666560173035,0
1550072367,43.43389129638672,28.031600952148438,6114.22216796875,0.6030398607254028,0.5464637279510498,0
1551079428,43.469993591308594,27.121135711669922,6121.60693359375,0.6025782823562622,0.5439131855964661,0
1552090108,43.4854850769043,26.897571563720703,6129.14306640625,0.6021072864532471,0.5436447858810425,0
1553100878,43.4570426940918,27.572134017944336,6136.9404296875,0.6016199588775635,0.5444962978363037,0
1554107610,43.41311264038086,28.569068908691406,6145.10302734375,0.6011097431182861,0.546045184135437,0
1555119307,43.39725112915039,28.770193099975586,6153.2236328125,0.6006022691726685,0.5455025434494019,0
1556134915,43.33180236816406,30.756465911865234,6162.33056640625,0.6000330448150635,0.5515536069869995,0
1557149688,43.30455017089844,31.09845542907715,6171.166015625,0.5994808673858643,0.5511125922203064,0
1558165223,43.24724197387695,32.35542297363281,6180.50439453125,0.5988972187042236,0.5535359978675842,0
1559183093,43.20437240600586,33.22202682495117,6190.12451171875,0.5982959270477295,0.5551279783248901,0
1560195359,43.17702865600586,33.570884704589844,6199.62548828125,0.597702145576477,0.5550417304039001,0
1561217009,43.15705490112305,33.85470199584961,6209.3076171875,0.5970969796180725,0.5553591847419739,0
1562220763,43.119422912597656,34.51506042480469,6218.998046875,0.5964913368225098,0.5562256574630737,0
1563227176,43.08711242675781,35.055137634277344,6228.96484375,0.5958684086799622,0.5569643378257751,0
1564234274,43.10968780517578,34.05125045776367,6238.3427734375,0.5952823162078857,0.5533981323242188,0
1565242058,43.085601806640625,33.991065979003906,6247.7275390625,0.5946957468986511,0.5507645010948181,0
1566244976,43.05788803100586,34.490657806396484,6257.51904296875,0.5940837860107422,0.5514960885047913,0
1567264501,43.029048919677734,34.94743728637695,6267.4189453125,0.5934650301933289,0.5518565773963928,0
1567264501,43.029048919677734,34.94743728637695,6267.4189453125,0.5934650301933289,0.5518565773963928,0
1568283388,43.00815200805664,35.07481384277344,6277.4208984375,0.5928398966789246,0.5509293079376221,0
1569289575,43.02976989746094,34.36305618286133,6286.95166015625,0.5922442674636841,0.5490356087684631,0
1570294159,43.05279541015625,34.07585906982422,6296.32861328125,0.5916581749916077,0.5499670505523682,0
1571300443,43.03780746459961,34.1943359375,6305.97216796875,0.5910554528236389,0.549372673034668,0
1572304402,43.033607482910156,34.209625244140625,6315.47802734375,0.5904613733291626,0.5492722392082214,0
1573322865,43.0372200012207,33.4635124206543,6324.87158203125,0.589874267578125,0.544890284538269,0
1574326485,43.03404235839844,33.33402633666992,6334.10986328125,0.589296817779541,0.5437615513801575,0
1575326353,43.10586929321289,31.482572555541992,6342.4609375,0.5887749195098877,0.5392739772796631,0
1576348155,43.07123947143555,32.366329193115234,6351.8603515625,0.5881874561309814,0.541158139705658,0
1577355388,43.019691467285156,33.32622528076172,6361.39306640625,0.5875916481018066,0.5418240427970886,0
1578362854,43.01198959350586,33.40321350097656,6370.7421875,0.5870072841644287,0.541610062122345,0
1579368645,43.05662536621094,32.14544677734375,6379.5517578125,0.5864567160606384,0.53817218542099,0
1580380247,43.12666702270508,30.18355941772461,6387.63720703125,0.5859513878822327,0.5325465798377991,0
1581399959,43.16367721557617,29.310544967651367,6395.75439453125,0.5854440927505493,0.5302590131759644,0
1582418810,43.115055084228516,30.215044021606445,6404.38037109375,0.5849049091339111,0.5303754806518555,0
1583438460,43.07461929321289,31.061866760253906,6413.42578125,0.5843396186828613,0.5312689542770386,0
1584458233,43.06669616699219,31.22910499572754,6422.3154296875,0.5837839841842651,0.5313114523887634,0
1585481280,43.01607894897461,32.3469352722168,6431.7080078125,0.5831969976425171,0.5330827236175537,0
1586492107,43.023765563964844,32.07921600341797,6440.6787109375,0.582636296749115,0.5321868062019348,0
1587494856,42.99580001831055,32.956443786621094,6450.025390625,0.5820521116256714,0.5350326895713806,0
1588502763,43.019840240478516,32.27558898925781,6458.96923828125,0.5814931392669678,0.5332565307617188,0
1589516216,43.069026947021484,30.478538513183594,6467.3515625,0.5809692144393921,0.5267098546028137,0
1590536175,43.1756477355957,27.941293716430664,6474.7900390625,0.580504298210144,0.5210932493209839,0
1591557460,43.18630599975586,27.879270553588867,6482.6357421875,0.5800139904022217,0.5211019515991211,0
1592562328,43.20454788208008,27.33846092224121,6490.23583984375,0.5795389413833618,0.5188999176025391,0
1593565858,43.26497268676758,25.954883575439453,6497.11865234375,0.5791088342666626,0.5155308842658997,0
1594584250,43.203712463378906,27.502017974853516,6505.10888671875,0.5786094069480896,0.5182164311408997,0
1595599842,43.07107925415039,31.218908309936523,6514.68408203125,0.5780109167098999,0.5281211137771606,0
1596606230,43.00961685180664,32.31755447387695,6523.95654296875,0.5774314403533936,0.5288510918617249,0
1597614265,42.880577087402344,35.37525939941406,6534.43896484375,0.5767762660980225,0.5354639887809753,0
1598633247,42.739173889160156,38.903465270996094,6546.01513671875,0.5760527849197388,0.5444065928459167,0
1599651779,42.67121505737305,39.86809158325195,6557.505859375,0.5753345489501953,0.5447351932525635,0
1599651779,42.67121505737305,39.86809158325195,6557.505859375,0.5753345489501953,0.5447351932525635,0
1600659859,42.54479217529297,42.61796951293945,6570.013671875,0.5745528936386108,0.5506943464279175,0
1601678057,42.51002883911133,42.96747589111328,6582.14404296875,0.5737947225570679,0.5509624481201172,0
1602697828,42.396568298339844,45.201900482177734,6595.23291015625,0.5729766488075256,0.5550510883331299,0
1603700376,42.2419548034668,48.398746490478516,6609.59814453125,0.5720788240432739,0.5615963339805603,0
1604719453,42.5177001953125,39.93826675415039,6619.31494140625,0.5714715123176575,0.5373784303665161,0
1605723251,42.56974411010742,38.59760665893555,6629.646484375,0.5708258152008057,0.5346991419792175,0
1606734008,42.53456115722656,39.388675689697266,6640.8994140625,0.570122480392456,0.5365631580352783,0
1607752962,42.57461166381836,38.002288818359375,6651.41748046875,0.569465160369873,0.5321478247642517,0
1608764726,42.48502731323242,40.73899841308594,6663.30126953125,0.5687223672866821,0.5408586859703064,0
1609767418,42.46318435668945,40.757080078125,6674.701171875,0.5680098533630371,0.5392900109291077,0
1610778457,42.464012145996094,40.1946907043457,6685.88134765625,0.56731116771698,0.5362088084220886,0
1611789792,42.382530212402344,41.986488342285156,6697.86328125,0.566562294960022,0.5396483540534973,0
1612789318,42.14609909057617,47.83779525756836,6712.564453125,0.5656434297561646,0.5537704825401306,0
1613799637,42.25092697143555,43.88408660888672,6724.44921875,0.5649006366729736,0.5406774878501892,0
1614799746,42.42131805419922,38.890201568603516,6734.08056640625,0.5642986297607422,0.5265837907791138,0
1615809455,42.38540267944336,39.95328140258789,6745.38330078125,0.563592255115509,0.5296401977539062,0
1616813737,42.33446502685547,41.004032135009766,6757.17431640625,0.5628553032875061,0.5312585830688477,0
1617816253,42.2974853515625,41.659664154052734,6768.9267578125,0.562120795249939,0.5319225788116455,0
1618818038,42.275150299072266,42.011444091796875,6780.720703125,0.5613836646080017,0.5322408676147461,0
1619834604,42.245723724365234,42.6563720703125,6792.876953125,0.5606238842010498,0.5336874723434448,0
1620853412,42.24761962890625,42.459110260009766,6804.8349609375,0.559876561164856,0.5331012010574341,0
1621872529,42.220680236816406,42.62012481689453,6816.9853515625,0.5591171383857727,0.5316213965415955,0
1622876423,42.03006362915039,47.082942962646484,6830.68310546875,0.5582610368728638,0.5408563613891602,0
1623882768,41.911136627197266,49.76295852661133,6845.18212890625,0.5573548078536987,0.5469160079956055,0
1624894165,41.85276412963867,50.82814407348633,6859.78857421875,0.5564419031143188,0.5492303371429443,0
1625905527,42.05186080932617,44.18977355957031,6871.0048828125,0.5557408928871155,0.52811199426651,0
1626912192,42.09894943237305,42.79055404663086,6882.64111328125,0.5550136566162109,0.5241191387176514,0
1627932114,42.0904426574707,42.80405044555664,6894.638671875,0.5542638301849365,0.5232922434806824,0
1628934864,41.996055603027344,45.14778137207031,6908.16357421875,0.5534185171127319,0.5289466381072998,0
1629937686,42.00531768798828,44.847713470458984,6920.44775390625,0.5526506900787354,0.5282963514328003,0
1630948199,42.07046127319336,42.70515823364258,6931.92626953125,0.5519332885742188,0.5213391184806824,0
1631964196,42.08099365234375,42.35961151123047,6943.69873046875,0.5511975288391113,0.520084798336029,0
1631964196,42.08099365234375,42.35961151123047,6943.69873046875,0.5511975288391113,0.520084798336029,0
1632983618,42.198116302490234,38.53689193725586,6954.21142578125,0.5505405068397522,0.5073460340499878,0
1634004968,42.269935607910156,36.8994140625,6964.3212890625,0.5499086380004883,0.5034444332122803,0
1635006344,42.35365295410156,34.332149505615234,6973.3486328125,0.5493444204330444,0.49443042278289795,0
1636031746,42.3398551940918,34.9854736328125,6983.3515625,0.5487192273139954,0.4959144592285156,0
1637047977,42.43087387084961,32.680213928222656,6992.341796875,0.5481573343276978,0.4894057512283325,0
1638055827,42.484214782714844,31.255704879760742,7000.5908203125,0.5476417541503906,0.48411381244659424,0
1639065986,42.45809555053711,32.15116882324219,7009.80322265625,0.5470659732818604,0.4858102798461914,0
1639065986,42.45809555053711,32.15116882324219,7009.80322265625,0.5470659732818604,0.4858102798461914,0
1640072187,42.35342788696289,35.379756927490234,7020.306640625,0.546409547328949,0.4946928024291992,0
1641088715,42.2580680847168,38.014495849609375,7031.4765625,0.5457113981246948,0.5012809038162231,0
1642100214,42.19329071044922,39.022254943847656,7042.7099609375,0.5450093746185303,0.5007514953613281,0
1643127674,42.10173797607422,41.13939666748047,7054.79296875,0.5442541837692261,0.5049540400505066,0
1644133265,42.08926010131836,41.29990768432617,7066.228515625,0.5435394048690796,0.505051851272583,0
1645140944,42.10060501098633,40.47600173950195,7077.46240234375,0.5428373217582703,0.5011832118034363,0
1646155586,42.06296920776367,41.26015853881836,7089.21337890625,0.5421028733253479,0.5025655031204224,0
1647175560,42.03814697265625,41.931392669677734,7101.24755859375,0.5413507223129272,0.5047026872634888,0
1648178237,42.0683708190918,40.91666793823242,7112.3203125,0.540658712387085,0.5016000270843506,0
1649179896,41.96049880981445,43.28114318847656,7124.8427734375,0.5398760437965393,0.5057841539382935,0
1650184612,41.75856018066406,48.47647476196289,7139.46044921875,0.5389624238014221,0.5191836953163147,0
1651199337,41.6706657409668,50.17972946166992,7153.92578125,0.538058340549469,0.5224263668060303,0
1652219355,41.88336944580078,43.53030776977539,7165.310546875,0.5373468399047852,0.5029502511024475,0
1653221857,41.99409866333008,40.10200500488281,7175.603515625,0.5367034673690796,0.4923252463340759,0
1654228726,42.03973388671875,38.731170654296875,7186.2109375,0.5360405445098877,0.48786798119544983,0
1655240246,42.004764556884766,40.11582946777344,7197.7197265625,0.5353212356567383,0.4928551912307739,0
1656263121,41.991214752197266,40.14454650878906,7209.21826171875,0.5346025824546814,0.49139606952667236,0
1657283099,41.96236038208008,40.81968307495117,7220.94921875,0.5338693857192993,0.4925788342952728,0
1658285683,41.976539611816406,40.543766021728516,7232.18115234375,0.5331673622131348,0.4922701418399811,0
1659287739,41.958187103271484,40.03754425048828,7243.2470703125,0.5324757695198059,0.4867516756057739,0
1660307265,41.98042297363281,39.86822509765625,7254.46630859375,0.5317745208740234,0.4878474473953247,0
1661326951,41.986690521240234,39.333805084228516,7265.57958984375,0.5310800075531006,0.4847694933414459,0
1662337513,42.0189094543457,38.143863677978516,7276.1396484375,0.5304199457168579,0.48009026050567627,0
1663349560,42.0841178894043,36.25728225708008,7285.91748046875,0.5298088788986206,0.4741056263446808,0
1664353172,42.06230926513672,36.57041549682617,7296.14501953125,0.5291696786880493,0.4730808436870575,0
1665355912,41.99254608154297,38.720245361328125,7307.2216796875,0.5284773111343384,0.4791834056377411,0
1666357753,41.86585235595703,41.9550666809082,7319.546875,0.527707040309906,0.4867156445980072,0
1667362478,41.81932830810547,42.620094299316406,7331.9189453125,0.5269337892532349,0.4866745173931122,0
1668373296,41.89522171020508,40.345001220703125,7342.751953125,0.5262566804885864,0.4801306128501892,0
1669393431,42.00007247924805,37.28271484375,7352.740234375,0.5256324410438538,0.4710811972618103,0
1670403709,41.99344253540039,37.55807876586914,7363.26904296875,0.5249744057655334,0.47164854407310486,0
1671422585,41.970603942871094,38.584693908691406,7374.34814453125,0.5242819786071777,0.47565311193466187,0
1672434494,41.96217346191406,38.491336822509766,7385.07763671875,0.5236113667488098,0.47383901476860046,0
1673458182,41.9250373840332,38.990753173828125,7396.251953125,0.5229129791259766,0.47287771105766296,0
1674461412,41.96006774902344,37.74186325073242,7406.541015625,0.5222699046134949,0.4681767225265503,0
1675466946,41.845558166503906,41.17925262451172,7418.541015625,0.5215198993682861,0.47831904888153076,0
1676486872,41.60107421875,47.6361083984375,7433.46875,0.5205869078636169,0.49521902203559875,0
1677488656,41.76993179321289,41.778446197509766,7443.939453125,0.5199325084686279,0.4757809042930603,0
1678489299,41.84614944458008,39.20231246948242,7454.3623046875,0.5192810297012329,0.4671374559402466,0
1679507845,41.942508697509766,36.28322982788086,7464.0771484375,0.5186738967895508,0.45788681507110596,0
1680525731,41.99236297607422,35.135128021240234,7474.07421875,0.5180490612983704,0.45512664318084717,0
1681526202,41.968772888183594,36.20499038696289,7484.20703125,0.5174157619476318,0.45883315801620483,0
1682549183,42.01642990112305,34.490577697753906,7493.8623046875,0.5168123245239258,0.45207107067108154,0
1683568764,42.23031234741211,28.80756950378418,7500.9033203125,0.5163722634315491,0.4366213381290436,0
1684579117,42.32814025878906,26.254375457763672,7507.58056640625,0.5159549117088318,0.4283604025840759,0
1685599343,42.35107421875,26.268741607666016,7515.05908203125,0.515487551689148,0.42895615100860596,0
1686606066,42.172088623046875,31.50537109375,7525.11865234375,0.5148587822914124,0.4427275061607361,0
1687620897,42.099369049072266,33.52914047241211,7534.7900390625,0.5142543315887451,0.4474140703678131,0
1688624709,41.87899398803711,39.79108810424805,7547.10107421875,0.5134848952293396,0.4648791551589966,0
1689628205,41.63678741455078,46.2518310546875,7561.29833984375,0.5125975608825684,0.4823128283023834,0
1690634213,41.7294921875,42.29367446899414,7572.49462890625,0.5118978023529053,0.4677453637123108,0
1691642800,41.81753158569336,39.83491516113281,7583.0673828125,0.5112370252609253,0.46174389123916626,0
1692645202,41.68321228027344,42.989654541015625,7595.47509765625,0.5104615092277527,0.4684816002845764,0
1693664477,41.563541412353516,45.642215728759766,7609.3291015625,0.5095956325531006,0.4743158519268036,0
1694676493,41.595237731933594,44.193485260009766,7621.14404296875,0.508857250213623,0.46915319561958313,0
1695695674,41.71198654174805,40.542579650878906,7631.98779296875,0.5081794857978821,0.45843759179115295,0
1696714255,41.709815979003906,40.46230697631836,7643.19091796875,0.5074793100357056,0.45782291889190674,0
1697726174,41.666099548339844,41.30073547363281,7655.1923828125,0.5067291855812073,0.4589402973651886,0
1698735890,41.77122116088867,38.24284744262695,7665.02783203125,0.5061144828796387,0.45018863677978516,0
1699739649,41.65389633178711,41.49970626831055,7677.39111328125,0.5053417682647705,0.4590282440185547,0
1700763572,41.68966293334961,40.38534164428711,7688.64111328125,0.504638671875,0.4558449983596802,0
1701777370,41.640037536621094,41.83708190917969,7700.5830078125,0.5038923025131226,0.4602457582950592,0
1702789273,41.36874008178711,49.065067291259766,7716.00927734375,0.5029281377792358,0.4795187711715698,0
1703807455,41.46688461303711,45.5379753112793,7728.61279296875,0.5021404027938843,0.4684097468852997,0
1704819624,41.492366790771484,44.007118225097656,7740.4697265625,0.5013993382453918,0.4616045355796814,0
1705826213,41.53395080566406,42.59053039550781,7751.95068359375,0.5006817579269409,0.4571281969547272,0
1706834202,41.37141418457031,47.38048553466797,7766.25634765625,0.49978768825531006,0.47173893451690674,0
1707844457,41.28467559814453,49.179229736328125,7780.42626953125,0.4989020526409149,0.4753061830997467,0
1708860193,41.24060821533203,49.911563873291016,7794.6103515625,0.49801555275917053,0.47663986682891846,0
1709875029,41.466636657714844,42.79682922363281,7805.32568359375,0.49734586477279663,0.454907089471817,0
1710882139,41.49800109863281,41.43572998046875,7816.4404296875,0.49665117263793945,0.44908449053764343,0
1711888759,41.52215576171875,40.884498596191406,7827.80126953125,0.4959411323070526,0.4477730989456177,0
1712908202,41.4760856628418,42.29712677001953,7839.93359375,0.4951828718185425,0.4517665505409241,0
1713912007,41.25603485107422,48.05618667602539,7854.7099609375,0.4942593276500702,0.46638500690460205,0
1714930619,41.15597915649414,50.81447982788086,7869.70654296875,0.4933220446109772,0.4748663306236267,0
1715946334,41.32592010498047,44.94402313232422,7881.23681640625,0.4926013946533203,0.4554147720336914,0
1716955592,41.390769958496094,42.819244384765625,7892.70751953125,0.4918844997882843,0.4483679533004761,0
1717956774,41.4171142578125,41.48973083496094,7904.16064453125,0.49116867780685425,0.44226762652397156,0
1717956774,41.4171142578125,41.48973083496094,7904.16064453125,0.49116867780685425,0.44226762652397156,0
1718975700,41.4762077331543,40.09952926635742,7915.134765625,0.49048277735710144,0.43893730640411377,0
1719991255,41.486534118652344,40.130863189697266,7926.390625,0.4897792935371399,0.4396882653236389,0
1721010193,41.50065994262695,39.71453094482422,7937.67431640625,0.48907405138015747,0.4379463195800781,0
1722017830,41.48569869995117,40.594608306884766,7948.96240234375,0.48836857080459595,0.44157302379608154,0
1723036576,41.49654006958008,39.439571380615234,7960.169921875,0.48766809701919556,0.43473657965660095,0
1724039590,41.43466567993164,41.36577606201172,7971.939453125,0.4869324862957001,0.4402860999107361,0
1725059383,41.25194549560547,46.27690124511719,7986.27197265625,0.4860367178916931,0.4531698226928711,0
1726078134,41.29610824584961,44.557281494140625,7998.6064453125,0.4852657914161682,0.4471355974674225,0
1727094143,41.35716247558594,42.40595626831055,8010.021484375,0.48455238342285156,0.4396543502807617,0
1728104368,41.22688674926758,46.435665130615234,8023.60546875,0.4837033748626709,0.4522000551223755,0
1729112597,41.29191589355469,43.75299072265625,8035.51953125,0.48295873403549194,0.4420279264450073,0
1730126933,41.30925369262695,42.695945739746094,8047.39111328125,0.4822167754173279,0.43698808550834656,0
1731129566,41.36559295654297,41.393333435058594,8058.51708984375,0.4815213680267334,0.43430382013320923,0
1732134224,41.34939956665039,41.49940490722656,8070.3251953125,0.4807834029197693,0.43302175402641296,0
1733153451,41.34845733642578,41.79555892944336,8082.33935546875,0.4800325036048889,0.4347144365310669,0
1734176186,41.352298736572266,41.25558090209961,8093.7431640625,0.4793197512626648,0.4312652051448822,0
1735186570,41.322174072265625,41.47047805786133,8105.43115234375,0.4785892367362976,0.42910754680633545,0
1736206537,41.2962532043457,42.17224884033203,8117.59375,0.47782909870147705,0.43080222606658936,0
1737228150,41.19965744018555,44.77143859863281,8130.67724609375,0.47701138257980347,0.43748632073402405,0
1738228879,41.27650833129883,42.20310974121094,8141.9326171875,0.4763079285621643,0.4290810823440552,0
1739247676,41.26639175415039,42.54957962036133,8154.10791015625,0.4755469560623169,0.4302293062210083,0
1740263587,41.29075241088867,41.43260955810547,8165.5068359375,0.4748345613479614,0.4253581464290619,0
1741270137,41.25429153442383,42.00837707519531,8177.40087890625,0.47409117221832275,0.42498430609703064,0
1742289290,41.27836608886719,41.461673736572266,8189.0439453125,0.47336345911026,0.4239402413368225,0
1743296840,41.29960250854492,40.9483642578125,8200.306640625,0.47265952825546265,0.42255857586860657,0
1744315601,41.267578125,41.437049865722656,8212.3212890625,0.4719086289405823,0.42214235663414,0
1745319197,41.25629425048828,41.77236557006836,8223.96484375,0.47118091583251953,0.4229971468448639,0
1746341185,41.18184280395508,43.4248046875,8236.6123046875,0.4703904390335083,0.4258074164390564,0
1747358063,41.31393814086914,39.27483367919922,8247.015625,0.46974021196365356,0.4127534329891205,0
1748364984,41.41751480102539,36.503055572509766,8256.61328125,0.46914035081863403,0.4049230217933655,0
1749386363,41.471797943115234,35.07578659057617,8266.3935546875,0.4685291051864624,0.4003925323486328,0
1750398893,41.53596115112305,33.45107650756836,8275.4150390625,0.4679652452468872,0.3953770399093628,0
1751406495,41.626949310302734,30.749244689941406,8283.6044921875,0.4674534201622009,0.3859613239765167,0
1752420771,41.60829162597656,31.54475212097168,8292.3642578125,0.46690595149993896,0.3874295651912689,0
1753437311,41.56767654418945,32.83618927001953,8302.0283203125,0.46630191802978516,0.39029279351234436,0
1754443388,41.46274948120117,36.019012451171875,8312.52734375,0.4656457304954529,0.39902442693710327,0
1755458734,41.402320861816406,37.80424499511719,8323.5751953125,0.46495527029037476,0.4040088653564453,0
1756482160,41.32220458984375,40.12834167480469,8335.40234375,0.46421605348587036,0.4107171297073364,0
1757486091,41.272674560546875,41.075714111328125,8347.080078125,0.4634861946105957,0.4119117558002472,0
1758503867,41.25010681152344,41.1431999206543,8358.7099609375,0.4627593159675598,0.41035759449005127,0
1759524369,41.20624923706055,41.95639419555664,8370.732421875,0.46200793981552124,0.41138553619384766,0
1760531364,41.199520111083984,41.66132354736328,8382.3056640625,0.4612845778465271,0.4091358184814453,0
1761546856,41.197811126708984,41.75324249267578,8394.1015625,0.46054738759994507,0.41004836559295654,0
1762553783,41.16520309448242,42.64277648925781,8406.15234375,0.45979416370391846,0.41280025243759155,0
1763573511,40.976104736328125,48.003604888916016,8420.703125,0.4588847756385803,0.4285992383956909,0
1764579263,40.881004333496094,49.90293502807617,8434.9775390625,0.4579926133155823,0.43221843242645264,0
1765599140,40.84095001220703,50.26426696777344,8449.1953125,0.45710402727127075,0.43178102374076843,0
1766614199,41.007442474365234,44.622379302978516,8460.705078125,0.45638465881347656,0.4137627184391022,0
1767634557,41.105857849121094,41.70694351196289,8471.8828125,0.4556860327720642,0.40539953112602234,0
1768652990,41.14714813232422,40.51056671142578,8482.990234375,0.45499181747436523,0.40181753039360046,0
1769673548,41.158599853515625,40.33420944213867,8494.4970703125,0.45427262783050537,0.40169090032577515,0
1770687703,41.23423385620117,37.7222785949707,8504.6064453125,0.45364081859588623,0.39218437671661377,0
1771706965,41.267066955566406,36.836063385009766,8514.8037109375,0.453003466129303,0.3890773057937622,0
1772708775,41.36280822753906,33.7992057800293,8523.66015625,0.4524499773979187,0.37846067547798157,0
1773720590,41.47478485107422,30.945966720581055,8531.7724609375,0.45194292068481445,0.37035083770751953,0
1774723141,41.58263397216797,28.06478500366211,8539.1728515625,0.4514803886413574,0.36126866936683655,0
1775731518,41.67760467529297,25.84474754333496,8545.8662109375,0.45106208324432373,0.3548071086406708,0
1776741409,41.72575759887695,24.99653434753418,8552.7373046875,0.45063263177871704,0.35221269726753235,0
1777751145,41.74757766723633,24.72342872619629,8559.6318359375,0.45020169019699097,0.3506040573120117,0
1778764680,42.030723571777344,16.31732940673828,8562.9140625,0.44999659061431885,0.3233943581581116,0
1779764961,42.2722053527832,9.600814819335938,8564.14453125,0.4499197006225586,0.3014407753944397,0
1780770230,42.31352615356445,8.661123275756836,8566.2373046875,0.4497888684272766,0.29534605145454407,0
1781786769,42.28683853149414,9.61601448059082,8569.126953125,0.4496082663536072,0.29479387402534485,0
1782797072,42.264251708984375,10.759858131408691,8572.33984375,0.4494074583053589,0.29644066095352173,0
1783797432,42.214420318603516,12.735055923461914,8576.2568359375,0.44916266202926636,0.30121368169784546,0
1784816943,41.8501091003418,22.329835891723633,8584.025390625,0.448677122592926,0.32281726598739624,0
1785823582,41.78730010986328,22.879335403442383,8591.1904296875,0.4482293128967285,0.3193359375,0
1786837321,42.08797836303711,14.743074417114258,8593.5556640625,0.44808149337768555,0.29711616039276123,0
1787838365,41.42134094238281,31.818378448486328,8604.9501953125,0.4473693370819092,0.3361244201660156,0
1788856408,40.94945526123047,43.1560173034668,8619.603515625,0.4464535117149353,0.36175599694252014,0
1789864473,40.3261604309082,58.676631927490234,8638.7373046875,0.44525760412216187,0.4003441035747528,0
1790867867,40.151092529296875,61.680904388427734,8656.98046875,0.4441174268722534,0.4069395065307617,0
1791883289,40.2762451171875,56.82058334350586,8672.1015625,0.4431723356246948,0.3936392366886139,0
1792890104,40.4075813293457,51.591461181640625,8685.533203125,0.4423328638076782,0.3771503269672394,0
1793905466,40.574703216552734,47.17597579956055,8697.765625,0.44156837463378906,0.36882293224334717,0
1794908860,40.61112594604492,45.57137680053711,8710.1181640625,0.4407963156700134,0.3640674948692322,0
1795927614,40.58277130126953,46.22242736816406,8723.419921875,0.4399649500846863,0.36697918176651,0
1796947105,40.54606628417969,45.89436340332031,8736.3798828125,0.4391549825668335,0.36228063702583313,0
1797969302,40.537025451660156,45.435577392578125,8748.53515625,0.43839526176452637,0.3591621220111847,0
1798985542,40.11017608642578,55.549217224121094,8766.3818359375,0.4372798204421997,0.38152778148651123,0
1799993305,40.14348602294922,53.86304473876953,8781.357421875,0.43634384870529175,0.3768104910850525,0
1801008214,40.27488327026367,50.28612518310547,8794.7099609375,0.4355093240737915,0.36952877044677734,0
1802027630,40.2795295715332,49.9556884765625,8808.720703125,0.43463367223739624,0.3692849576473236,0
1803047156,40.26029586791992,49.989009857177734,8822.7880859375,0.43375444412231445,0.3687516450881958,0
1804058319,40.25379180908203,49.446475982666016,8836.58203125,0.4328923225402832,0.36562666296958923,0
1805064706,40.26579284667969,48.82179260253906,8850.1376953125,0.4320451021194458,0.36377960443496704,0
1806084590,40.27011489868164,48.57612228393555,8863.8759765625,0.4311864376068115,0.3634682893753052,0
1807103927,40.23930740356445,48.71040725708008,8877.5576171875,0.43033134937286377,0.36169952154159546,0
1808106298,40.2344856262207,48.62340545654297,8891.21484375,0.4294778108596802,0.36130809783935547,0
1809126118,40.207950592041016,49.001731872558594,8905.0263671875,0.4286145567893982,0.3615517020225525,0
1810147953,40.19553756713867,49.06122589111328,8918.9833984375,0.42774224281311035,0.36124569177627563,0
1811165208,40.15888595581055,49.841957092285156,8933.2841796875,0.42684847116470337,0.36306700110435486,0
1812182936,40.11956024169922,50.27088928222656,8947.5224609375,0.4259585738182068,0.36232587695121765,0
1813191701,40.11027526855469,49.87690353393555,8961.462890625,0.4250872731208801,0.3593541383743286,0
1814198208,40.1177864074707,49.547325134277344,8975.3154296875,0.4242215156555176,0.3585547208786011,0
1815212660,40.125,49.11504364013672,8989.037109375,0.4233638644218445,0.35692915320396423,0
1816227333,40.15129470825195,47.99650955200195,9002.322265625,0.4225335717201233,0.35268136858940125,0
1817231746,40.06300735473633,50.19416427612305,9016.5888671875,0.42164188623428345,0.35770225524902344,0
1818235825,39.897666931152344,53.69826889038086,9032.34375,0.420657217502594,0.36364343762397766,0
1819254884,39.87233352661133,53.717411041259766,9047.6220703125,0.41970235109329224,0.36205822229385376,0
1820274220,39.87601852416992,53.168888092041016,9062.4111328125,0.4187780022621155,0.359728068113327,0
1821289062,39.801231384277344,54.659332275390625,9078.1826171875,0.41779232025146484,0.3622966408729553,0
1822309029,39.758018493652344,55.21482467651367,9093.857421875,0.41681259870529175,0.3623039424419403,0
1823327656,39.75143814086914,54.40594482421875,9109.169921875,0.4158555865287781,0.35714423656463623,0
1824338564,39.75050735473633,54.060298919677734,9124.2978515625,0.41491007804870605,0.3555149435997009,0
1825357370,39.85825729370117,51.00673294067383,9138.1484375,0.41404443979263306,0.34748923778533936,0
1826363738,39.85128402709961,51.09564208984375,9152.3525390625,0.4131566882133484,0.3474217653274536,0
1827369014,39.82844924926758,51.35672378540039,9166.7724609375,0.4122554063796997,0.34672388434410095,0
1828384078,39.80548858642578,51.617469787597656,9181.3583984375,0.4113438129425049,0.34610515832901,0
1829386056,39.80143356323242,51.18507385253906,9195.4873046875,0.41046077013015747,0.34291404485702515,0
1830394544,39.853187561035156,50.1596565246582,9209.3671875,0.40959328413009644,0.34181487560272217,0
1831404183,39.83602523803711,50.24462127685547,9223.501953125,0.4087098240852356,0.34039434790611267,0
1832415945,39.847896575927734,49.753753662109375,9237.3916015625,0.4078417420387268,0.3383268713951111,0
1833431753,39.878570556640625,48.91513442993164,9250.96484375,0.40699338912963867,0.3359113335609436,0
1834447692,39.88526153564453,48.62687683105469,9264.7490234375,0.40613192319869995,0.3344377875328064,0
1835462367,39.873722076416016,48.467533111572266,9278.3154296875,0.40528398752212524,0.33175817131996155,0
1836469317,39.83555603027344,49.27357864379883,9292.3046875,0.40440964698791504,0.3326514661312103,0
1837480409,39.79558181762695,50.14208984375,9306.5791015625,0.40351754426956177,0.33394303917884827,0
1838499771,39.741310119628906,51.221397399902344,9321.1923828125,0.4026041626930237,0.3352288007736206,0
1839515733,39.65768814086914,53.01898193359375,9336.6181640625,0.40164005756378174,0.3382967710494995,0
1840523294,39.625282287597656,53.38257598876953,9351.51171875,0.40070921182632446,0.3376413881778717,0
1841526191,39.60873794555664,53.21296691894531,9366.5263671875,0.3997707962989807,0.3352334797382355,0
1842540258,39.82640838623047,47.253849029541016,9378.740234375,0.3990074396133423,0.31963497400283813,0
1843544900,40.291168212890625,35.355369567871094,9386.5625,0.39851856231689453,0.29045358300209045,0
1844547749,41.060646057128906,17.380708694458008,9387.6494140625,0.3984506130218506,0.2516145706176758,0
1845558962,41.44293212890625,9.878006935119629,9388.8330078125,0.3983766436576843,0.23779381811618805,0
1846566318,41.64565658569336,6.682490825653076,9390.0087890625,0.39830315113067627,0.23242728412151337,0
1847577356,41.77770233154297,5.275446891784668,9391.19140625,0.3982292413711548,0.2311987280845642,0
1848581317,41.94707107543945,2.6901180744171143,9391.455078125,0.3982127904891968,0.22628657519817352,0
