TIME_StartTime,BATT_VFilt,BATT_CFilt,BATT_Discharged,BATT_Remaining,BATT_RemainingV,BATT_Warning
646278309,49.15156173706055,3.9139437675476074,99.47522735595703,0.9789615273475647,0.9546699523925781,0
646323773,49.14859390258789,3.9370510578155518,99.51020050048828,0.978959321975708,0.9545105695724487,0
647341849,47.60504913330078,18.07782554626465,106.6183090209961,0.978515088558197,0.8787945508956909,0
648356879,45.50868225097656,36.81452178955078,121.13440704345703,0.977607786655426,0.7759231925010681,0
649366642,44.63810348510742,43.6229362487793,134.79544067382812,0.9767540097236633,0.7312762141227722,0
650374804,44.164939880371094,47.00067138671875,148.68101501464844,0.9758861660957336,0.708246648311615,0
650374804,44.164939880371094,47.00067138671875,148.68101501464844,0.9758861660957336,0.708246648311615,0
651377051,43.89139175415039,48.82472610473633,162.6206817626953,0.9750149250030518,0.6968457698822021,0
652392962,43.70183563232422,49.94991683959961,177.0485076904297,0.9741131663322449,0.6899753212928772,0
653407897,43.641845703125,49.87083435058594,191.05032348632812,0.9732380509376526,0.6889434456825256,0
654414082,43.57265090942383,49.771148681640625,205.02391052246094,0.9723647236824036,0.686248242855072,0
655424701,43.51057052612305,49.82210159301758,219.0271759033203,0.9714894890785217,0.6848715543746948,0
656444271,43.50589370727539,49.34927749633789,232.7786865234375,0.9706300497055054,0.6859137415885925,0
657456373,43.47219467163086,49.518211364746094,246.7067108154297,0.9697595238685608,0.6876072287559509,0
658462987,43.42405319213867,49.746395111083984,260.70721435546875,0.9688845276832581,0.6877844333648682,0
659465719,43.406150817871094,49.79634094238281,274.57232666015625,0.9680179357528687,0.689818799495697,0
660468470,43.4005012512207,49.47007369995117,288.41339111328125,0.9671528935432434,0.6904079914093018,0
661487351,43.3736572265625,49.4665412902832,302.3025817871094,0.9662848114967346,0.6904900670051575,0
662499119,43.29510498046875,50.21065902709961,316.7414855957031,0.9653823375701904,0.6896708607673645,0
663512592,43.220314025878906,50.74567413330078,331.09393310546875,0.9644853472709656,0.6877087354660034,0
664528638,43.07575225830078,51.924259185791016,345.89990234375,0.9635599851608276,0.6822121143341064,0
665531726,43.02607345581055,52.28020095825195,360.4773864746094,0.962648868560791,0.6816688179969788,0
665531726,43.02607345581055,52.28020095825195,360.4773864746094,0.962648868560791,0.6816688179969788,0
666546113,43.00917434692383,52.245277404785156,375.31536865234375,0.9617214798927307,0.6820300221443176,0
667565645,42.97892761230469,52.483238220214844,390.1018981933594,0.9607973098754883,0.6825215220451355,0
668583287,43.05377197265625,51.25322723388672,404.59576416015625,0.9598914980888367,0.6847613453865051,0
669594906,43.13838577270508,50.338497161865234,418.0924072265625,0.9590479135513306,0.6893999576568604,0
670609438,42.819419860839844,54.15446090698242,433.9990234375,0.9580537676811218,0.6811663508415222,0
671620933,42.14073944091797,63.306739807128906,453.1746520996094,0.956855297088623,0.6693595051765442,0
672636586,40.98808670043945,79.71285247802734,479.16094970703125,0.9552311301231384,0.6557813286781311,0
673650869,40.41402053833008,87.15977478027344,505.20806884765625,0.953603208065033,0.6483504176139832,0
674662335,40.35276794433594,87.43968200683594,530.0851440429688,0.9520483613014221,0.6503368020057678,0
675668649,40.81089401245117,81.33274841308594,551.8193969726562,0.950689971446991,0.6662408113479614,0
676670243,41.14152526855469,76.73113250732422,572.1762084960938,0.9494177103042603,0.6764673590660095,0
676670243,41.14152526855469,76.73113250732422,572.1762084960938,0.9494177103042603,0.6764673590660095,0
677682527,42.82694625854492,55.76982879638672,585.342529296875,0.9485948085784912,0.726563036441803,0
678684720,44.31517791748047,36.4736442565918,590.82666015625,0.9482520222663879,0.7605130672454834,0
679698814,44.45573425292969,35.573848724365234,600.6509399414062,0.9476380348205566,0.7662484645843506,0
680711786,44.668792724609375,33.24252700805664,609.7981567382812,0.9470663070678711,0.7707957029342651,0
681734521,44.6191291809082,34.93339157104492,619.7654418945312,0.9464433789253235,0.7728239893913269,0
682755778,44.756404876708984,33.650753021240234,629.1796875,0.9458549618721008,0.7763771414756775,0
683756200,44.923561096191406,31.7603816986084,637.6065063476562,0.9453282952308655,0.7791600823402405,0
684759929,45.06549072265625,30.06262969970703,645.643310546875,0.9448260068893433,0.7803887128829956,0
685780232,45.720333099365234,21.620868682861328,650.556884765625,0.9445189237594604,0.793131411075592,0
686792609,46.213035583496094,16.07220458984375,653.7413330078125,0.9443198442459106,0.8058359622955322,0
687795058,46.52739334106445,12.621723175048828,656.5879516601562,0.9441419839859009,0.8125548958778381,0
688815387,46.83799362182617,9.845380783081055,658.7880249023438,0.944004476070404,0.8230394721031189,0
689825822,47.00300598144531,8.457673072814941,660.95068359375,0.9438692927360535,0.8268188834190369,0
690841789,47.24874496459961,5.962273597717285,662.1436767578125,0.9437947273254395,0.8322255611419678,0
691851931,47.480690002441406,3.780979871749878,662.783203125,0.9437547326087952,0.8381989598274231,0
692871281,47.586814880371094,3.1686160564422607,663.538330078125,0.9437075853347778,0.8407552242279053,0
692871281,47.586814880371094,3.1686160564422607,663.538330078125,0.9437075853347778,0.8407552242279053,0
693873856,47.62044906616211,3.5527267456054688,664.578125,0.9436425566673279,0.842413067817688,0
694881771,47.4755973815918,6.161843299865723,666.7857055664062,0.9435045719146729,0.8396638035774231,0
695900720,47.38945388793945,7.630155086517334,669.284912109375,0.9433484077453613,0.8365302681922913,0
696907656,47.33566665649414,8.667498588562012,671.8646850585938,0.9431871771812439,0.8346365690231323,0
697914537,47.41891098022461,7.860150337219238,673.9563598632812,0.9430564641952515,0.835922122001648,0
698917520,47.59310531616211,5.969480037689209,675.2996826171875,0.9429724812507629,0.8400503993034363,0
699920397,47.65644836425781,5.532435417175293,676.6995239257812,0.9428849816322327,0.8415374755859375,0
700943704,47.644107818603516,6.111435413360596,678.5333251953125,0.9427703619003296,0.841582179069519,0
701946747,47.62703323364258,6.727945327758789,680.5425415039062,0.9426447749137878,0.8417287468910217,0
702948747,47.58605194091797,7.457991123199463,682.73828125,0.9425075650215149,0.8402378559112549,0
703968542,47.47019577026367,9.141153335571289,685.66015625,0.9423249363899231,0.8371191024780273,0
704979356,47.36286163330078,10.503518104553223,688.9011840820312,0.9421223998069763,0.8332319259643555,0
706001089,46.8531494140625,18.247634887695312,695.0191040039062,0.9417400360107422,0.8277319669723511,0
707016601,46.4979248046875,22.472455978393555,702.4070434570312,0.9412782788276672,0.817550539970398,0
708016791,46.333984375,24.242542266845703,709.5449829101562,0.9408321380615234,0.8125249147415161,0
709029792,46.24123001098633,25.064802169799805,716.8005981445312,0.9403786659240723,0.809255063533783,0
710038309,46.25104904174805,24.715713500976562,723.7066650390625,0.9399470686912537,0.809467077255249,0
711049057,46.6632080078125,18.69584083557129,727.82421875,0.9396896958351135,0.815911054611206,0
712067961,46.98090362548828,14.529136657714844,731.0581665039062,0.9394875764846802,0.8231226801872253,0
713073391,47.02714538574219,14.151062965393066,734.91455078125,0.9392465353012085,0.8250976204872131,0
714090345,46.99275588989258,14.722949028015137,739.1270751953125,0.9389832615852356,0.8245238065719604,0
715095615,46.98196792602539,14.978431701660156,743.4163208007812,0.9387152194976807,0.8246237635612488,0
716109194,47.06785202026367,13.895269393920898,747.1539306640625,0.9384815692901611,0.8265052437782288,0
717110358,47.283172607421875,11.10608959197998,749.69775390625,0.9383226037025452,0.8310596942901611,0
718111666,47.290103912353516,11.533768653869629,752.9093017578125,0.9381218552589417,0.8337187170982361,0
719125312,47.234683990478516,12.357479095458984,756.539794921875,0.9378949403762817,0.8323162794113159,0
720131943,47.22034454345703,12.678595542907715,760.1596069335938,0.9376687407493591,0.8322876691818237,0
721146597,47.257137298583984,12.20255184173584,763.5227661132812,0.9374585151672363,0.8326745629310608,0
722160631,47.249351501464844,12.460392951965332,767.0958862304688,0.9372352361679077,0.8329910635948181,0
723168136,47.2338752746582,12.748159408569336,770.68212890625,0.9370110630989075,0.8327639698982239,0
724174670,47.220218658447266,12.912393569946289,774.343505859375,0.9367822408676147,0.8319888710975647,0
725178644,47.301910400390625,11.93777084350586,777.47119140625,0.9365867376327515,0.8341751098632812,0
726184482,47.36226272583008,11.592384338378906,780.6651611328125,0.9363871216773987,0.8380978107452393,0
727196432,47.39553451538086,11.120994567871094,783.6912231445312,0.9361979961395264,0.8381261825561523,0
727196432,47.39553451538086,11.120994567871094,783.6912231445312,0.9361979961395264,0.8381261825561523,0
728198891,47.40847396850586,11.0114164352417,786.7416381835938,0.9360073804855347,0.8383228778839111,0
729205727,47.500396728515625,9.875625610351562,789.2692260742188,0.9358493685722351,0.8403453826904297,0
730207767,47.506690979003906,9.895184516906738,792.0151977539062,0.9356777667999268,0.8405316472053528,0
731220077,47.53715896606445,9.666393280029297,794.683349609375,0.9355109930038452,0.8417734503746033,0
732239865,47.486183166503906,10.571980476379395,797.8011474609375,0.9353161454200745,0.84159916639328,0
733257979,47.42228317260742,11.354488372802734,801.2188720703125,0.9351025223731995,0.839431881904602,0
734272014,47.333003997802734,12.453747749328613,804.9605712890625,0.9348686933517456,0.8367452621459961,0
734272014,47.333003997802734,12.453747749328613,804.9605712890625,0.9348686933517456,0.8367452621459961,0
735291828,47.33285140991211,12.458085060119629,808.5255737304688,0.9346458911895752,0.836760401725769,0
736295719,47.365875244140625,12.022744178771973,811.7507934570312,0.9344443082809448,0.837458074092865,0
737310282,47.43983840942383,11.178013801574707,814.7942504882812,0.9342540502548218,0.8398997783660889,0
738329198,47.38051223754883,12.422637939453125,818.41162109375,0.9340279698371887,0.8414260149002075,0
739331956,47.32311248779297,12.914684295654297,822.1738891601562,0.9337928295135498,0.8384369611740112,0
740345424,47.28852462768555,13.39011001586914,826.06298828125,0.9335497617721558,0.8379008769989014,0
741357690,47.40553283691406,11.733297348022461,829.0501708984375,0.9333630800247192,0.8398773670196533,0
741357690,47.40553283691406,11.733297348022461,829.0501708984375,0.9333630800247192,0.8398773670196533,0
742367677,47.36262512207031,12.367910385131836,832.5967407226562,0.9331414103507996,0.8392369747161865,0
743375163,47.35422897338867,12.597543716430664,836.1282348632812,0.9329206943511963,0.8398392200469971,0
744381987,47.36734390258789,12.36966323852539,839.555908203125,0.9327064752578735,0.8397889733314514,0
745397580,47.46043395996094,11.080446243286133,842.39306640625,0.9325291514396667,0.8413909077644348,0
746400528,47.46113586425781,11.214771270751953,845.5603637695312,0.9323312044143677,0.8421415686607361,0
747407133,47.35444641113281,12.906420707702637,849.44970703125,0.9320880770683289,0.8415217995643616,0
748426621,47.31330871582031,13.359853744506836,853.3668212890625,0.9318432807922363,0.8401575088500977,0
749434152,47.34339141845703,12.92349910736084,856.9208984375,0.9316211342811584,0.840740442276001,0
750453383,47.33236312866211,13.032404899597168,860.643798828125,0.9313884973526001,0.8403456807136536,0
751471060,47.26260757446289,13.89727783203125,864.72705078125,0.9311332702636719,0.8385552167892456,0
752482065,47.365692138671875,12.24697494506836,867.8886108398438,0.9309356808662415,0.8391273021697998,0
753489385,47.36789321899414,12.473847389221191,871.38623046875,0.9307170510292053,0.8408132195472717,0
754493133,47.4248046875,11.69408130645752,874.5582885742188,0.9305188059806824,0.8419023156166077,0
755510916,47.526817321777344,10.444987297058105,877.2864379882812,0.93034827709198,0.8446412682533264,0
756530758,47.538875579833984,10.40719985961914,880.1539916992188,0.9301691055297852,0.8453420996665955,0
757533331,47.4206428527832,12.07106876373291,883.92919921875,0.9299331307411194,0.8431631922721863,0
758548709,47.376495361328125,12.823091506958008,887.6629028320312,0.9296997785568237,0.8433133363723755,0
759554774,47.41719436645508,12.194387435913086,891.0407104492188,0.9294886589050293,0.8437470197677612,0
760558536,47.453521728515625,11.719245910644531,894.1792602539062,0.9292925000190735,0.844549834728241,0
761577362,47.403785705566406,12.565070152282715,897.8672485351562,0.929062008857727,0.8446235656738281,0
762597351,47.3394775390625,13.282303810119629,901.8322143554688,0.928814172744751,0.8424277901649475,0
763614911,47.40085983276367,12.369268417358398,905.1764526367188,0.9286051988601685,0.8432894945144653,0
764622553,47.602149963378906,9.650681495666504,907.3436889648438,0.928469717502594,0.847274899482727,0
765633250,47.60225296020508,9.756501197814941,910.0039672851562,0.9283034801483154,0.847478985786438,0
766652381,47.411773681640625,12.5547513961792,914.0780029296875,0.928048849105835,0.8448336720466614,0
767662942,47.26051712036133,14.723337173461914,918.5816650390625,0.9277673363685608,0.8427689671516418,0
768682358,47.103538513183594,16.7037353515625,923.6937866210938,0.9274478554725647,0.8391911387443542,0
769697191,47.08085250854492,16.81849479675293,928.4754028320312,0.9271489977836609,0.8382494449615479,0
770704480,47.13542175292969,15.722716331481934,932.7289428710938,0.9268831610679626,0.8376728892326355,0
771727095,47.316246032714844,13.015231132507324,935.883056640625,0.9266860485076904,0.8399367928504944,0
772742250,47.39955520629883,12.10684871673584,939.0968627929688,0.9264851808547974,0.8430294394493103,0
773745374,47.4929313659668,10.877867698669434,941.9417114257812,0.9263073205947876,0.8449429273605347,0
774761276,47.46957015991211,11.344412803649902,945.2052001953125,0.9261033535003662,0.8451230525970459,0
775763570,47.554080963134766,10.089482307434082,947.81103515625,0.9259405136108398,0.8458086848258972,0
776777765,47.53788757324219,10.425610542297363,950.8548583984375,0.9257502555847168,0.8458302617073059,0
777793237,47.683353424072266,8.551294326782227,952.8816528320312,0.9256235957145691,0.8489529490470886,0
778807860,47.66525650024414,9.136707305908203,955.5167236328125,0.9254589080810547,0.8502171039581299,0
779823366,47.60974884033203,9.950078010559082,958.535888671875,0.9252701997756958,0.8490649461746216,0
780830147,47.570274353027344,10.498684883117676,961.544921875,0.9250821471214294,0.8480612635612488,0
781849348,47.64766311645508,9.40973949432373,964.0687255859375,0.9249244332313538,0.8491329550743103,0
782852122,47.77689743041992,7.741557598114014,965.8953247070312,0.9248102307319641,0.8518511652946472,0
783874658,47.7875862121582,7.643979549407959,967.968017578125,0.9246807098388672,0.851689338684082,0
784894471,47.27012252807617,15.633180618286133,973.463134765625,0.9243372678756714,0.8472999930381775,0
785905452,46.89899826049805,20.386028289794922,980.1549072265625,0.9239190220832825,0.8390693664550781,0
786912956,46.625492095947266,23.793386459350586,987.6007690429688,0.923453688621521,0.8333733081817627,0
787919283,46.38090515136719,26.769929885864258,995.5409545898438,0.9229574203491211,0.828296422958374,0
787919283,46.38090515136719,26.769929885864258,995.5409545898438,0.9229574203491211,0.828296422958374,0
788921464,46.19428634643555,28.849313735961914,1004.1748657226562,0.9224177598953247,0.824096143245697,0
789926378,46.56614685058594,22.78839111328125,1009.5813598632812,0.922079861164093,0.8271153569221497,0
790936545,46.786102294921875,19.839292526245117,1014.2667846679688,0.9217870235443115,0.8327557444572449,0
791939140,46.70444107055664,20.726503372192383,1020.2408447265625,0.9214136600494385,0.830403745174408,0
792958934,46.62648391723633,21.661645889282227,1026.51904296875,0.9210212826728821,0.828831136226654,0
793973696,46.562252044677734,22.260671615600586,1033.0240478515625,0.9206147193908691,0.8267258405685425,0
794988249,46.60739517211914,21.414241790771484,1038.876220703125,0.9202489256858826,0.8269069194793701,0
795995012,46.69416809082031,19.97760772705078,1044.22509765625,0.9199146628379822,0.8275864124298096,0
797017217,46.89733123779297,17.132539749145508,1048.5318603515625,0.9196454882621765,0.8313151597976685,0
797017217,46.89733123779297,17.132539749145508,1048.5318603515625,0.9196454882621765,0.8313151597976685,0
798029753,47.01749038696289,15.24306583404541,1052.39453125,0.9194040298461914,0.8317359089851379,0
799031851,46.958831787109375,16.310461044311523,1057.1756591796875,0.9191052317619324,0.83199542760849,0
800039429,46.945316314697266,16.63005828857422,1061.8475341796875,0.9188132286071777,0.8324347734451294,0
801049809,46.760467529296875,19.194000244140625,1067.6563720703125,0.9184501767158508,0.8290306925773621,0
802057838,46.666046142578125,20.28277015686035,1073.6939697265625,0.9180728197097778,0.8262931108474731,0
803063621,46.74293518066406,19.038455963134766,1078.707763671875,0.9177594780921936,0.8268340229988098,0
804079168,46.682430267333984,19.803071975708008,1084.4605712890625,0.9173999428749084,0.8255265355110168,0
805097979,46.66757583618164,20.12114715576172,1090.19970703125,0.9170412421226501,0.8263349533081055,0
806101687,46.68565368652344,19.642757415771484,1095.6298828125,0.9167018532752991,0.8255127668380737,0
807103689,46.689178466796875,19.656856536865234,1101.0152587890625,0.9163652658462524,0.8261984586715698,0
808118140,46.891685485839844,16.605316162109375,1105.22998046875,0.9161018133163452,0.8283554911613464,0
809118757,46.988197326660156,15.291747093200684,1109.117431640625,0.9158588647842407,0.8298267722129822,0
810137673,46.816680908203125,18.03148651123047,1114.7020263671875,0.915509819984436,0.8287757039070129,0
811156448,46.76691818237305,18.603466033935547,1120.156982421875,0.9151688814163208,0.8271508812904358,0
812167126,46.66020584106445,20.026643753051758,1126.03564453125,0.9148014783859253,0.8249959945678711,0
813178839,46.609249114990234,20.589744567871094,1131.9560546875,0.9144314527511597,0.8234931230545044,0
814184506,46.58016586303711,20.74911880493164,1137.822021484375,0.9140648245811462,0.8217493891716003,0
815191830,46.60926818847656,20.200895309448242,1143.3526611328125,0.9137191772460938,0.8216889500617981,0
816211175,46.66518020629883,19.249605178833008,1148.6065673828125,0.9133908152580261,0.8217213153839111,0
817217403,46.74601364135742,18.20054817199707,1153.5247802734375,0.9130834341049194,0.8237037658691406,0
818228658,46.7921257019043,17.444772720336914,1158.2672119140625,0.9127870202064514,0.8236129283905029,0
819239341,46.70030975341797,18.96218490600586,1163.833251953125,0.9124391078948975,0.8234117031097412,0
820259266,46.66398620605469,19.380369186401367,1169.4150390625,0.9120903015136719,0.822297215461731,0
821274037,46.692665100097656,18.7662353515625,1174.6728515625,0.9117616415023804,0.8214821219444275,0
822280611,46.88596725463867,15.579974174499512,1178.4503173828125,0.911525547504425,0.8214795589447021,0
823298532,46.859031677246094,16.53790855407715,1183.115966796875,0.9112339615821838,0.8242743015289307,0
824311363,46.8014030456543,17.299583435058594,1188.273681640625,0.9109116196632385,0.8227901458740234,0
825321835,46.86157989501953,16.516931533813477,1192.73779296875,0.9106326103210449,0.8239943981170654,0
826325674,46.878074645996094,16.07176399230957,1197.1470947265625,0.9103569984436035,0.8225484490394592,0
827336214,46.9254150390625,15.585649490356445,1201.386962890625,0.9100919961929321,0.8241463899612427,0
828353306,46.86601257324219,16.550426483154297,1206.3497314453125,0.9097818732261658,0.8237065076828003,0
829358807,46.93103790283203,15.599743843078613,1210.478271484375,0.9095238447189331,0.8242895603179932,0
830368712,46.92283248901367,15.777892112731934,1214.9700927734375,0.909243106842041,0.824243426322937,0
831376227,46.94121170043945,15.509954452514648,1219.2479248046875,0.9089757204055786,0.8241617679595947,0
832395561,46.8847541809082,16.36256217956543,1224.0531005859375,0.9086753726005554,0.8233274817466736,0
833413670,46.8720703125,16.452943801879883,1228.707275390625,0.9083845019340515,0.8223937153816223,0
834429468,46.857242584228516,16.618337631225586,1233.443115234375,0.9080885052680969,0.8217326402664185,0
835432049,46.81285095214844,17.226947784423828,1238.348876953125,0.9077818989753723,0.8208400011062622,0
836450871,46.792442321777344,17.598859786987305,1243.394287109375,0.9074665904045105,0.8210999369621277,0
837462574,46.6983528137207,19.194488525390625,1248.83740234375,0.9071263670921326,0.8213565349578857,0
838473343,46.44124221801758,22.834131240844727,1256.185302734375,0.9066671133041382,0.817913293838501,0
839479965,46.33429718017578,24.39100456237793,1263.12060546875,0.9062336683273315,0.8174132108688354,0
840498868,46.184844970703125,26.092119216918945,1270.9014892578125,0.9057473540306091,0.8134998679161072,0
841510632,46.10084533691406,26.982187271118164,1278.70556640625,0.9052596092224121,0.811564564704895,0
842513047,46.20626449584961,24.796907424926758,1285.353759765625,0.9048441052436829,0.8100109100341797,0
843520069,46.8001708984375,16.006887435913086,1288.010986328125,0.9046780467033386,0.8173940181732178,0
844537391,46.97930145263672,13.690434455871582,1291.4139404296875,0.9044653177261353,0.8209225535392761,0
845542597,47.142032623291016,11.682602882385254,1294.238525390625,0.9042887687683105,0.8244093656539917,0
846557189,47.163124084472656,11.663727760314941,1297.4698486328125,0.9040868282318115,0.825317919254303,0
847560509,47.12291717529297,12.314270973205566,1301.0977783203125,0.9038600921630859,0.8240970969200134,0
848567761,47.22187423706055,11.02096939086914,1303.9237060546875,0.9036834836006165,0.8254010677337646,0
849578494,47.29449462890625,10.318486213684082,1306.6807861328125,0.9035111665725708,0.8275973200798035,0
850589222,47.304176330566406,10.409918785095215,1309.6148681640625,0.9033277630805969,0.828136146068573,0
851592592,47.362091064453125,9.796133041381836,1312.246337890625,0.9031633138656616,0.8293808698654175,0
852610099,47.340721130371094,10.240622520446777,1315.2021484375,0.9029785990715027,0.8289455771446228,0
853626458,47.349090576171875,10.249268531799316,1318.1165771484375,0.9027964472770691,0.8290235996246338,0
854629071,47.36125183105469,10.101027488708496,1320.8863525390625,0.9026232957839966,0.8285529613494873,0
855632980,47.36906051635742,10.111637115478516,1323.6776123046875,0.902448832988739,0.828705370426178,0
856646780,47.35651397705078,10.432046890258789,1326.70947265625,0.902259349822998,0.8287551403045654,0
857666573,47.37834548950195,10.393169403076172,1329.6212158203125,0.9020773768424988,0.8303117752075195,0
858677247,47.39674377441406,10.228623390197754,1332.4342041015625,0.9019016027450562,0.8306616544723511,0
859684945,47.386077880859375,10.522857666015625,1335.4576416015625,0.9017125964164734,0.8309264779090881,0
860686627,47.39375686645508,10.465078353881836,1338.3328857421875,0.9015328884124756,0.8309334516525269,0
861690529,47.36235427856445,11.001795768737793,1341.5263671875,0.9013333320617676,0.8306477069854736,0
862708347,47.33087921142578,11.443277359008789,1344.828369140625,0.9011269211769104,0.8298379182815552,0
863719870,47.29731750488281,11.773825645446777,1348.18408203125,0.9009171724319458,0.8281341195106506,0
864739778,47.23678207397461,12.642233848571777,1351.9498291015625,0.9006818532943726,0.8271560668945312,0
864739778,47.23678207397461,12.642233848571777,1351.9498291015625,0.9006818532943726,0.8271560668945312,0
865742627,47.25925827026367,12.401412963867188,1355.3402099609375,0.900469958782196,0.8280572891235352,0
866753514,47.23539352416992,12.5006103515625,1358.875244140625,0.9002490043640137,0.8260691165924072,0
867765047,47.22816467285156,12.795780181884766,1362.4979248046875,0.900022566318512,0.827251136302948,0
868779767,47.25730514526367,12.288119316101074,1365.971923828125,0.89980548620224,0.8271666765213013,0
869798603,47.369754791259766,10.6249361038208,1368.61181640625,0.8996404409408569,0.8283692598342896,0
870817181,47.322959899902344,11.491328239440918,1371.9931640625,0.8994291424751282,0.8286725282669067,0
871828989,47.3536376953125,10.91284465789795,1375.0206298828125,0.8992398977279663,0.8280766606330872,0
872847735,47.44014358520508,9.858719825744629,1377.6064453125,0.8990783095359802,0.8303171992301941,0
873851425,47.420589447021484,10.33121395111084,1380.48046875,0.8988986611366272,0.8308939337730408,0
874865162,47.4083137512207,10.973616600036621,1383.7193603515625,0.89869624376297,0.8336180448532104,0
875867919,47.282440185546875,12.595292091369629,1387.5238037109375,0.8984584808349609,0.8304172158241272,0
876875636,47.1851692199707,13.75679874420166,1391.624755859375,0.8982021808624268,0.8276392817497253,0
877891331,47.331546783447266,11.56722640991211,1394.498291015625,0.8980225324630737,0.8294396996498108,0
878898110,47.40012741088867,10.48108959197998,1397.191162109375,0.8978542685508728,0.8296462297439575,0
879916992,47.441200256347656,10.052201271057129,1399.92138671875,0.8976836204528809,0.831028401851654,0
880927596,47.427734375,10.350418090820312,1402.8873291015625,0.8974982500076294,0.8312443494796753,0
881931662,47.44163131713867,10.191873550415039,1405.68505859375,0.8973233699798584,0.8314921259880066,0
882937004,47.43291473388672,10.29190444946289,1408.5975341796875,0.8971413373947144,0.8309635519981384,0
883948966,46.92652893066406,18.109838485717773,1415.2723388671875,0.8967241644859314,0.8273947238922119,0
884955679,46.74053955078125,20.49028778076172,1421.477294921875,0.8963363766670227,0.823965311050415,0
885959317,46.51369094848633,23.505903244018555,1428.6695556640625,0.8958868384361267,0.8206435441970825,0
886966112,46.45136642456055,23.93387222290039,1435.4609375,0.8954623937606812,0.8184691667556763,0
887968261,46.36471176147461,24.887939453125,1442.58740234375,0.8950170278549194,0.8170796632766724,0
888983927,46.27770233154297,25.82318878173828,1449.971923828125,0.8945554494857788,0.8155149817466736,0
889994963,46.18156814575195,26.776939392089844,1457.6544189453125,0.8940752744674683,0.8130922317504883,0
891004721,46.13353729248047,27.1047306060791,1465.4000244140625,0.8935912251472473,0.8118581771850586,0
892012989,46.1185302734375,26.97489356994629,1472.9326171875,0.8931204080581665,0.8110496997833252,0
893019669,46.12992858886719,26.472036361694336,1480.299560546875,0.8926599621772766,0.8105251789093018,0
894039005,46.132266998291016,26.008089065551758,1487.5076904296875,0.8922094702720642,0.8090143203735352,0
895062788,46.10795593261719,26.366464614868164,1495.0606689453125,0.8917374014854431,0.8099230527877808,0
895062788,46.10795593261719,26.366464614868164,1495.0606689453125,0.8917374014854431,0.8099230527877808,0
896071902,46.10535430908203,26.04367446899414,1502.3458251953125,0.8912820816040039,0.8086183071136475,0
897072698,46.121986389160156,25.64576530456543,1509.3748779296875,0.8908427953720093,0.808756411075592,0
898075549,46.180152893066406,24.33991813659668,1515.9993896484375,0.8904287219047546,0.8072704672813416,0
899094055,46.136024475097656,25.090723037719727,1523.1163330078125,0.8899839520454407,0.8079485297203064,0
900105753,46.14812088012695,24.721721649169922,1530.0333251953125,0.8895516395568848,0.807468831539154,0
901117305,46.14774703979492,24.668174743652344,1536.87109375,0.8891242742538452,0.8075392246246338,0
902119093,46.1201171875,24.9642276763916,1544.0006103515625,0.8886786699295044,0.8069891333580017,0
903121828,46.012474060058594,26.420114517211914,1551.578369140625,0.8882050514221191,0.8053240180015564,0
904129570,45.93461990356445,27.70375633239746,1559.66162109375,0.8876998424530029,0.8060850501060486,0
905133295,45.93355178833008,27.47569465637207,1567.2574462890625,0.8872251510620117,0.8052864074707031,0
906148500,45.97970962524414,26.440465927124023,1574.524169921875,0.8867709636688232,0.8041958212852478,0
907157957,46.07769012451172,24.593069076538086,1581.056640625,0.8863626718521118,0.8030955195426941,0
908170404,46.08574676513672,24.392927169799805,1587.909423828125,0.8859343528747559,0.8027715682983398,0
909172998,46.12593460083008,23.798254013061523,1594.412841796875,0.8855279088020325,0.8033357262611389,0
910180231,46.112876892089844,24.042945861816406,1601.1209716796875,0.8851086497306824,0.8035290241241455,0
911186128,46.06016159057617,24.82398223876953,1608.2159423828125,0.8846651911735535,0.8029735088348389,0
912190590,45.96333694458008,26.01120948791504,1615.6793212890625,0.884198784828186,0.8004184365272522,0
913192387,45.979557037353516,25.81844139099121,1622.872802734375,0.8837491273880005,0.8012707829475403,0
914208081,45.94645690917969,26.15601348876953,1630.25634765625,0.8832876682281494,0.800156831741333,0
915210204,46.00385284423828,25.056428909301758,1637.075927734375,0.8828614950180054,0.7994852066040039,0
916229803,46.11001968383789,23.380876541137695,1643.3658447265625,0.8824683427810669,0.8000516891479492,0
917236503,46.13290023803711,23.124563217163086,1649.801513671875,0.8820661306381226,0.8006793260574341,0
918245951,46.131988525390625,23.133689880371094,1656.27294921875,0.8816616535186768,0.800413966178894,0
919251002,46.10660171508789,23.210351943969727,1662.739501953125,0.8812574744224548,0.797931432723999,0
920258027,46.11939239501953,23.17726707458496,1669.2762451171875,0.8808489441871643,0.7989895939826965,0
921277681,46.071842193603516,23.784286499023438,1676.0457763671875,0.8804258704185486,0.7976360321044922,0
922288115,46.0107421875,24.54656219482422,1683.1214599609375,0.8799836039543152,0.7959868311882019,0
923299085,46.039344787597656,23.928787231445312,1689.6973876953125,0.8795726299285889,0.7950682044029236,0
924309756,45.98592758178711,24.47978973388672,1696.6905517578125,0.8791355490684509,0.7928462624549866,0
925317742,46.04813003540039,23.62126922607422,1703.173828125,0.8787303566932678,0.7940419316291809,0
926324184,46.07822799682617,23.353700637817383,1709.6883544921875,0.8783231973648071,0.7955058217048645,0
927326299,46.090091705322266,23.149219512939453,1716.0367431640625,0.8779264092445374,0.7953022718429565,0
928334098,46.013668060302734,24.467241287231445,1723.230224609375,0.8774768114089966,0.7956249713897705,0
929348954,46.04271697998047,23.786598205566406,1729.8145751953125,0.8770653009414673,0.7943674921989441,0
930356353,46.077571868896484,23.300235748291016,1736.2454833984375,0.8766633868217468,0.7949090600013733,0
931367472,46.08794403076172,23.168182373046875,1742.719970703125,0.8762587308883667,0.7950518727302551,0
932382320,46.06477737426758,23.431961059570312,1749.3184814453125,0.8758463263511658,0.7941120862960815,0
933383920,45.9764289855957,24.626537322998047,1756.3970947265625,0.875403881072998,0.7923112511634827,0
934384253,46.019901275634766,23.639760971069336,1762.75390625,0.8750065565109253,0.790603756904602,0
935396184,46.089962005615234,22.425434112548828,1768.8502197265625,0.874625563621521,0.7901618480682373,0
936406500,46.16382598876953,21.470195770263672,1774.6485595703125,0.8742631673812866,0.791636049747467,0
937410251,46.12208557128906,22.082897186279297,1780.972412109375,0.873867928981781,0.7907531261444092,0
938414058,46.117393493652344,22.1463623046875,1787.1683349609375,0.8734806776046753,0.7904355525970459,0
939419644,46.04486846923828,23.402973175048828,1793.96435546875,0.8730559349060059,0.7906386256217957,0
940439313,45.985198974609375,24.255218505859375,1800.9188232421875,0.8726212978363037,0.7897663116455078,0
941454205,46.018367767333984,23.434030532836914,1807.5313720703125,0.8722079992294312,0.788130521774292,0
942469779,46.04841232299805,22.845264434814453,1813.778564453125,0.8718175292015076,0.787451982498169,0
943476588,46.013973236083984,23.313854217529297,1820.40478515625,0.8714033961296082,0.7866847515106201,0
944483343,45.91358184814453,24.974937438964844,1827.684326171875,0.8709484338760376,0.7867650985717773,0
945490206,45.85624313354492,25.776296615600586,1835.0902099609375,0.8704855442047119,0.78609299659729,0
946502296,45.850059509277344,25.77895736694336,1842.296630859375,0.8700351715087891,0.7857911586761475,0
947512493,45.844703674316406,25.656982421875,1849.5230712890625,0.8695834875106812,0.7847599387168884,0
948516336,45.87751007080078,24.985008239746094,1856.3319091796875,0.8691579699516296,0.7841723561286926,0
949541707,45.949806213378906,23.724557876586914,1862.8572998046875,0.8687500953674316,0.7838174104690552,0
950561821,45.94110870361328,23.951736450195312,1869.66455078125,0.8683246970176697,0.7843501567840576,0
951564570,45.89649200439453,24.587358474731445,1876.7127685546875,0.8678841590881348,0.7836881279945374,0
952572497,45.878883361816406,24.798416137695312,1883.611328125,0.8674529790878296,0.7832326889038086,0
953586930,45.86064529418945,24.934572219848633,1890.794677734375,0.8670040369033813,0.7822975516319275,0
954594756,45.95100021362305,23.3729248046875,1896.937255859375,0.8666201233863831,0.7818875908851624,0
955608551,45.94768142700195,23.537656784057617,1903.627197265625,0.8662019968032837,0.782464861869812,0
956615386,45.961063385009766,23.27088737487793,1910.0167236328125,0.8658026456832886,0.7820396423339844,0
957634863,45.8906135559082,24.460012435913086,1917.1544189453125,0.8653565645217896,0.7820816040039062,0
958650619,45.80065155029297,25.804792404174805,1924.7135009765625,0.8648841381072998,0.781285285949707,0
959665651,45.8504524230957,25.103349685668945,1931.6068115234375,0.8644533157348633,0.7823103666305542,0
960676232,45.820404052734375,25.529502868652344,1938.9041748046875,0.863997220993042,0.7820408940315247,0
961680087,45.83182144165039,25.17682647705078,1945.8062744140625,0.8635658025741577,0.7811303734779358,0
962695676,45.762325286865234,26.17801284790039,1953.3975830078125,0.8630913496017456,0.7803437113761902,0
963712957,45.825984954833984,24.88337516784668,1960.291015625,0.8626605272293091,0.7790186405181885,0
964732794,45.94554901123047,22.778438568115234,1966.43896484375,0.8622762560844421,0.778171956539154,0
965740196,46.25901794433594,17.647560119628906,1970.2103271484375,0.8620405793190002,0.7779298424720764,0
966755278,46.380714416503906,15.90881633758545,1974.3817138671875,0.8617798686027527,0.7785036563873291,0
967773381,46.39962387084961,15.759258270263672,1978.7130126953125,0.8615091443061829,0.7781798243522644,0
968777638,46.442134857177734,15.336905479431152,1983.0179443359375,0.8612400889396667,0.7788161039352417,0
969785035,46.49946212768555,14.851387977600098,1986.9876708984375,0.8609919548034668,0.7806259989738464,0
970787251,46.62609100341797,13.103963851928711,1990.3648681640625,0.8607808947563171,0.7816705703735352,0
971790906,46.64280700683594,12.953556060791016,1993.8856201171875,0.8605608344078064,0.7810604572296143,0
972802335,46.654884338378906,13.016926765441895,1997.5830078125,0.8603297472000122,0.781498908996582,0
973809178,46.582313537597656,14.471858024597168,2001.841064453125,0.8600636720657349,0.7819858193397522,0
974828149,46.56201934814453,15.04071044921875,2006.228271484375,0.8597894310951233,0.7827330827713013,0
975847753,46.645606994628906,13.852532386779785,2009.9295654296875,0.85955810546875,0.7832642793655396,0
976866027,46.69061279296875,13.23060417175293,2013.537353515625,0.8593326210975647,0.7831745147705078,0
977872573,46.66325759887695,13.788972854614258,2017.4989013671875,0.8590850234031677,0.7830460071563721,0
978876222,46.685359954833984,13.703683853149414,2021.289794921875,0.8588480949401855,0.7841730117797852,0
979878970,46.715423583984375,13.210479736328125,2024.90771484375,0.8586219549179077,0.7835385203361511,0
980894516,46.47425079345703,17.67579460144043,2030.5467529296875,0.8582695722579956,0.786091148853302,0
981913479,46.487178802490234,17.19758415222168,2035.3936767578125,0.8579666018486023,0.7844479084014893,0
982916140,46.2943115234375,20.321693420410156,2041.663818359375,0.8575747013092041,0.7841706871986389,0
983915871,46.449588775634766,17.5093994140625,2046.0916748046875,0.8572980165481567,0.7830107808113098,0
984922109,46.403011322021484,18.417503356933594,2051.30078125,0.8569723963737488,0.78395015001297,0
985940470,46.43076705932617,17.80133628845215,2056.24169921875,0.8566635847091675,0.783056378364563,0
986956249,46.45649719238281,17.311458587646484,2061.0009765625,0.8563661575317383,0.782663881778717,0
987960612,46.32538986206055,19.433460235595703,2066.814208984375,0.8560028076171875,0.7823808193206787,0
988963833,46.18365478515625,21.866069793701172,2073.354248046875,0.8555940389633179,0.7834126949310303,0
989980487,46.18439483642578,21.657899856567383,2079.4658203125,0.8552120923995972,0.7828639149665833,0
990996896,46.20176696777344,21.021223068237305,2085.270751953125,0.8548492789268494,0.7811088562011719,0
992009561,46.14682388305664,21.68705940246582,2091.515380859375,0.8544589877128601,0.7799981236457825,0
993018267,46.122493743896484,22.11609649658203,2097.800048828125,0.8540661931037903,0.7807442545890808,0
994034458,46.11695098876953,22.378990173339844,2104.038818359375,0.8536763191223145,0.7824254631996155,0
995048901,46.080421447753906,22.674583435058594,2110.624755859375,0.8532646894454956,0.7810509204864502,0
996068556,45.92210006713867,25.173437118530273,2118.179931640625,0.8527924418449402,0.7808908820152283,0
997083051,45.834651947021484,26.314414978027344,2125.821044921875,0.8523148894309998,0.7798728942871094,0
998103727,45.88581085205078,25.09507179260254,2132.796875,0.8518788814544678,0.7784596681594849,0
999126110,46.594512939453125,12.699831008911133,2134.0537109375,0.8518003225326538,0.7742133736610413,0
1000149942,46.97050094604492,6.927602767944336,2134.79296875,0.8517541289329529,0.7754637598991394,0
1001159760,47.15241241455078,4.746465682983398,2135.660888671875,0.8516998887062073,0.7786263227462769,0
1002165686,47.25721740722656,3.7319271564483643,2136.469482421875,0.8516494035720825,0.7809189558029175,0
1003178015,47.32313919067383,3.2018399238586426,2137.267578125,0.8515994548797607,0.782220184803009,0
1004197314,47.38312911987305,2.9612631797790527,2138.04833984375,0.8515506982803345,0.7849216461181641,0
1005203048,47.43210983276367,2.6424357891082764,2138.72900390625,0.8515081405639648,0.7860209345817566,0
1006203948,47.4730224609375,2.372039794921875,2139.358642578125,0.8514688014984131,0.7867123484611511,0
1007222842,47.243247985839844,6.812337875366211,2141.677001953125,0.8513239026069641,0.7888854146003723,0
1008225821,46.899959564208984,12.752462387084961,2146.7060546875,0.8510096073150635,0.7901093363761902,0
1009245008,46.6463508605957,16.897239685058594,2152.15478515625,0.8506690263748169,0.789940595626831,0
1010252563,46.47388458251953,19.67827796936035,2158.172607421875,0.8502929210662842,0.7903696894645691,0
1011271311,46.297969818115234,22.09866714477539,2164.931884765625,0.8498704433441162,0.7884169816970825,0
1012278880,46.208778381347656,23.072580337524414,2171.601806640625,0.8494535684585571,0.7866130471229553,0
1013293580,46.16238784790039,23.353885650634766,2178.238037109375,0.84903883934021,0.7849419713020325,0
1014299412,46.18329620361328,22.397550582885742,2184.36181640625,0.8486560583114624,0.7823016047477722,0
1015312461,46.060462951660156,24.104965209960938,2191.39453125,0.8482165336608887,0.7813551425933838,0
1016315566,45.89558792114258,26.603439331054688,2199.334228515625,0.8477203249931335,0.781351625919342,0
1017340758,45.86796569824219,26.890541076660156,2207.020751953125,0.8472399115562439,0.7819506525993347,0
1018349452,45.87868881225586,26.26655387878418,2214.343017578125,0.8467822670936584,0.7805922627449036,0
1019367430,45.883121490478516,25.98994255065918,2221.651611328125,0.8463255167007446,0.7806047797203064,0
1020371664,45.926902770996094,24.935802459716797,2228.357666015625,0.8459063768386841,0.7795498967170715,0
1021390628,45.913055419921875,24.684858322143555,2235.338134765625,0.8454700708389282,0.7772811055183411,0
1022397547,45.913272857666016,24.542619705200195,2242.1064453125,0.8450470566749573,0.7771517634391785,0
1023408359,45.9417839050293,24.039539337158203,2248.790283203125,0.8446292877197266,0.7776747941970825,0
1024416119,45.916072845458984,24.339109420776367,2255.637939453125,0.8442013263702393,0.777403712272644,0
1025430783,45.850006103515625,25.20455551147461,2262.949462890625,0.8437443971633911,0.776550829410553,0
1026437983,45.898345947265625,24.25617027282715,2269.51513671875,0.8433340191841125,0.7761629819869995,0
1027453400,45.758235931396484,26.44854164123535,2277.33154296875,0.8428454995155334,0.7758663892745972,0
1028464135,45.62260437011719,28.725934982299805,2285.81103515625,0.8423155546188354,0.77699214220047,0
1029469272,45.466331481933594,31.248716354370117,2295.0986328125,0.8417350649833679,0.7778443098068237,0
1030489569,45.541263580322266,29.398874282836914,2303.202392578125,0.8412285447120667,0.7752298712730408,0
1031505287,45.58480453491211,28.40728187561035,2310.93798828125,0.8407450914382935,0.7743721008300781,0
1032524940,45.61717987060547,27.438251495361328,2318.55712890625,0.8402689099311829,0.7722203135490417,0
1033542720,45.71636962890625,25.602176666259766,2325.490234375,0.8398355841636658,0.7714498043060303,0
1034542846,45.8117561340332,23.90265464782715,2331.734375,0.8394452929496765,0.7707170844078064,0
1035546341,45.98686599731445,20.735700607299805,2336.973876953125,0.8391178250312805,0.768672525882721,0
1036563803,46.097293853759766,19.00594139099121,2341.881103515625,0.8388111591339111,0.7685416340827942,0
1037572439,46.004432678222656,20.740436553955078,2347.984130859375,0.8384296894073486,0.7690231800079346,0
1038583700,45.917850494384766,22.230005264282227,2354.5439453125,0.8380197286605835,0.7689746022224426,0
1039604485,45.922054290771484,22.365238189697266,2360.853759765625,0.8376253843307495,0.77009117603302,0
1040609734,45.820011138916016,24.13802719116211,2367.90771484375,0.837184488773346,0.7705665230751038,0
1040609734,45.820011138916016,24.13802719116211,2367.90771484375,0.837184488773346,0.7705665230751038,0
1041631803,45.8211555480957,23.73759651184082,2374.587158203125,0.8367670178413391,0.7681362628936768,0
1042640357,45.81845474243164,23.54494285583496,2381.190185546875,0.8363543152809143,0.7666128873825073,0
1043658174,45.8291015625,23.190881729125977,2387.700927734375,0.8359473943710327,0.7654180526733398,0
1044661781,45.83842086791992,23.214221954345703,2394.14892578125,0.8355444073677063,0.7665724158287048,0
1045681701,45.7912712097168,24.17003059387207,2401.14990234375,0.8351068496704102,0.7677308320999146,0
1046684161,45.73826217651367,24.803180694580078,2408.193115234375,0.8346666097640991,0.7662774324417114,0
1047696146,45.73536682128906,24.759326934814453,2415.142822265625,0.8342322707176208,0.7658917903900146,0
1048718805,45.76762390136719,24.10443687438965,2421.89990234375,0.8338099718093872,0.7652826309204102,0
1049741308,45.80146408081055,23.442691802978516,2428.427490234375,0.8334019780158997,0.7646401524543762,0
1050748436,45.73661422729492,24.444124221801758,2435.401611328125,0.8329660892486572,0.764104962348938,0
1051752234,45.681217193603516,25.30121612548828,2442.6318359375,0.832514226436615,0.7639025449752808,0
1052779412,45.689979553222656,24.89375877380371,2449.674560546875,0.8320740461349487,0.7624267935752869,0
1053787004,45.72954177856445,24.12137222290039,2456.24365234375,0.8316634893417358,0.761742353439331,0
1054789504,45.6799430847168,25.052061080932617,2463.3955078125,0.8312164545059204,0.762563169002533,0
1055796241,45.64971160888672,25.59272003173828,2470.675048828125,0.8307615518569946,0.7630382180213928,0
1056815801,45.61427307128906,25.699811935424805,2478.0380859375,0.8303013443946838,0.7601181864738464,0
1057841851,45.67523193359375,24.418428421020508,2484.768310546875,0.8298807144165039,0.7585158944129944,0
1058854354,45.72962188720703,23.443689346313477,2491.0859375,0.8294858336448669,0.7579397559165955,0
1059856623,45.86377716064453,21.195913314819336,2496.706298828125,0.8291345834732056,0.7576217651367188,0
1060859742,46.136844635009766,16.50800895690918,2500.275146484375,0.828911542892456,0.7556431889533997,0
1061876493,46.26251983642578,14.654544830322266,2504.0986328125,0.8286725282669067,0.7558370232582092,0
1062879291,46.39187240600586,12.737024307250977,2507.16748046875,0.8284807205200195,0.755707323551178,0
1063897817,46.443172454833984,12.115453720092773,2510.512451171875,0.8282716870307922,0.7554916739463806,0
1064916708,46.53641128540039,10.89040470123291,2513.282470703125,0.8280985355377197,0.7558179497718811,0
1065935613,46.42878723144531,13.160181045532227,2517.38623046875,0.8278420567512512,0.7574400305747986,0
1066947322,46.226478576660156,16.90652084350586,2522.790771484375,0.8275042772293091,0.7590285539627075,0
1067943108,46.087928771972656,19.58493995666504,2528.86376953125,0.8271247148513794,0.7613047361373901,0
1068972883,46.07127380371094,19.765701293945312,2534.36962890625,0.8267806172370911,0.7606055736541748,0
1069980507,45.94997787475586,21.758394241333008,2540.9033203125,0.8263722658157349,0.7607292532920837,0
1070996662,45.970359802246094,20.960830688476562,2546.574951171875,0.8260177373886108,0.7579162120819092,0
1071999434,45.9150390625,22.011693954467773,2552.959228515625,0.8256187438964844,0.7591474056243896,0
1073018867,46.16181182861328,17.13934326171875,2557.056884765625,0.8253626823425293,0.7541245222091675,0
1074029371,46.51038360595703,11.133676528930664,2558.9794921875,0.8252425193786621,0.7517478466033936,0
1075035986,46.617835998535156,9.663968086242676,2561.356689453125,0.8250939249992371,0.7522861957550049,0
1076047284,46.786354064941406,7.191401958465576,2562.885986328125,0.8249983191490173,0.7526814341545105,0
1077051972,46.82823944091797,6.8470587730407715,2564.714111328125,0.8248840570449829,0.7530851364135742,0
1078063154,46.82040023803711,7.675948619842529,2567.0068359375,0.8247407674789429,0.7559928894042969,0
1079073822,46.834449768066406,7.590305805206299,2569.21484375,0.8246027827262878,0.7555181980133057,0
1080092639,46.94635772705078,5.918081760406494,2570.525390625,0.8245208859443665,0.7552154064178467,0
1081111581,47.04756546020508,4.346523284912109,2571.4765625,0.8244614601135254,0.7542438507080078,0
1082115459,47.166255950927734,2.647536516189575,2571.873291015625,0.8244366645812988,0.7542369365692139,0
1083117439,47.21562957763672,2.2707912921905518,2572.3837890625,0.8244047164916992,0.7552603483200073,0
1084119741,47.22998809814453,2.4365837574005127,2573.05712890625,0.8243626356124878,0.7561824321746826,0
1085119828,47.188011169433594,3.535435199737549,2574.295166015625,0.8242852687835693,0.7573710680007935,0
1086123664,47.24446105957031,2.9199769496917725,2575.01806640625,0.8242400884628296,0.758215606212616,0
1087138363,47.0899543762207,6.02144718170166,2577.2314453125,0.8241017460823059,0.7606356739997864,0
1088157205,46.85669708251953,10.317825317382812,2580.8310546875,0.8238767385482788,0.7630134224891663,0
1089168943,46.69520568847656,13.113638877868652,2585.130615234375,0.8236080408096313,0.7641491293907166,0
1090187713,46.52391052246094,16.032949447631836,2590.1826171875,0.8232923150062561,0.7654149532318115,0
1091199590,46.401485443115234,17.70383071899414,2595.61279296875,0.822952926158905,0.7642465233802795,0
1092218548,46.546852111816406,14.783121109008789,2599.416259765625,0.822715163230896,0.7620207667350769,0
1093230156,46.66487503051758,12.74715805053711,2602.559814453125,0.8225187063217163,0.7619848251342773,0
1094244924,46.7999382019043,10.159153938293457,2604.96826171875,0.8223682045936584,0.7597725987434387,0
1095251169,46.94976806640625,7.811672687530518,2606.6669921875,0.8222620487213135,0.7603000998497009,0
1096255663,46.94614791870117,8.206222534179688,2608.91015625,0.8221218585968018,0.7618904113769531,0
1097266275,46.873905181884766,9.755059242248535,2611.944580078125,0.8219321966171265,0.7638427019119263,0
1098272541,46.791290283203125,11.293007850646973,2615.522705078125,0.8217085599899292,0.7649486064910889,0
1099276190,46.8188362121582,10.790379524230957,2618.350830078125,0.8215317726135254,0.7646586894989014,0
1100286152,46.71119689941406,12.804998397827148,2622.38134765625,0.8212798833847046,0.7663436532020569,0
1101294407,46.7467155456543,12.106267929077148,2625.583251953125,0.8210797309875488,0.7658727169036865,0
1102297311,46.58164596557617,14.947800636291504,2630.298828125,0.8207850456237793,0.7669421434402466,0
1103308239,46.582489013671875,14.45691204071045,2634.280517578125,0.820536196231842,0.7643988728523254,0
1104315665,46.6148681640625,13.415239334106445,2637.884765625,0.8203108906745911,0.7615128755569458,0
1105335460,46.67264938354492,12.38072395324707,2641.1494140625,0.8201068639755249,0.7612404227256775,0
1106338083,46.756736755371094,11.035367965698242,2643.947509765625,0.8199319839477539,0.7615715861320496,0
1107350058,46.756568908691406,11.057527542114258,2647.06103515625,0.8197373747825623,0.7615739107131958,0
1108360590,46.71751403808594,11.934768676757812,2650.360107421875,0.8195312023162842,0.7629034519195557,0
1109364612,46.42772674560547,17.035247802734375,2656.399169921875,0.8191537857055664,0.7654303312301636,0
1110383064,46.369903564453125,17.739532470703125,2661.453369140625,0.8188378810882568,0.7646083831787109,0
1111385416,46.21950149536133,20.140304565429688,2667.6279296875,0.818452000617981,0.7651480436325073,0
1112397483,46.17866897583008,20.53106117248535,2673.480224609375,0.8180862069129944,0.7645514011383057,0
1113419834,46.16936492919922,20.200786590576172,2679.177734375,0.8177300691604614,0.7625680565834045,0
1114439942,46.60658645629883,11.941256523132324,2680.8603515625,0.8176249265670776,0.7563367486000061,0
1115451543,46.81217956542969,8.766538619995117,2682.67578125,0.8175114393234253,0.7572970986366272,0
1116474550,46.99946594238281,6.0994873046875,2683.8720703125,0.817436695098877,0.759135901927948,0
1117477689,47.10264587402344,4.8138041496276855,2684.949462890625,0.8173693418502808,0.7606236338615417,0
1118485508,47.172943115234375,3.919339418411255,2685.8681640625,0.8173119425773621,0.7609690427780151,0
1119492086,47.235328674316406,3.1198761463165283,2686.596923828125,0.8172664046287537,0.7610734105110168,0
1120499014,47.223670959472656,3.5978243350982666,2687.684814453125,0.8171983957290649,0.7615243196487427,0
1121514016,47.254146575927734,3.712618112564087,2688.751220703125,0.817131757736206,0.7644123435020447,0
1122517412,47.20974349975586,4.632129192352295,2690.220703125,0.8170399069786072,0.7645363211631775,0
1123520756,47.19807815551758,5.008110046386719,2691.69140625,0.8169479966163635,0.7648947834968567,0
1124524734,47.16762161254883,5.633999824523926,2693.384765625,0.8168421983718872,0.7649703621864319,0
1125538466,47.14042663574219,6.045343399047852,2695.15576171875,0.8167314529418945,0.764130711555481,0
1126542009,47.12824249267578,6.470679759979248,2697.04443359375,0.8166134357452393,0.7651865482330322,0
1127560381,47.18035888671875,5.423147201538086,2698.4228515625,0.816527247428894,0.7635500431060791,0
1128567621,47.162567138671875,5.876696586608887,2700.040283203125,0.816426157951355,0.7640619277954102,0
1129579255,46.709922790527344,14.101613998413086,2706.0703125,0.816049337387085,0.769277036190033,0
1130598068,46.52858352661133,17.05573272705078,2711.27099609375,0.81572425365448,0.7700016498565674,0
1131608630,46.34330368041992,19.769023895263672,2717.4541015625,0.8153378367424011,0.7692825794219971,0
1132621370,46.25534439086914,20.790124893188477,2723.453125,0.8149628639221191,0.7681877613067627,0
1133627647,46.283119201660156,19.64190673828125,2728.907958984375,0.8146219253540039,0.7654507160186768,0
1134647247,46.82576370239258,9.882084846496582,2729.58642578125,0.8145795464515686,0.7611219882965088,0
1135668723,47.025997161865234,6.591824531555176,2730.788330078125,0.8145044445991516,0.7607957124710083,0
1136673047,47.176475524902344,4.18052864074707,2731.463623046875,0.8144622445106506,0.760356068611145,0
1137695447,47.173580169677734,4.636292457580566,2732.704833984375,0.8143846392631531,0.7618116736412048,0
1138695852,46.558433532714844,16.260316848754883,2739.858642578125,0.8139375448226929,0.7712688446044922,0
1139711321,46.43880844116211,17.82282257080078,2745.128662109375,0.8136081695556641,0.7695684432983398,0
1140714899,46.692447662353516,12.020990371704102,2747.4814453125,0.8134611248970032,0.7598585486412048,0
1141715797,46.83720779418945,9.103196144104004,2749.30615234375,0.8133471012115479,0.7562525272369385,0
1142716594,46.7476806640625,10.30003833770752,2752.411376953125,0.8131530284881592,0.7540393471717834,0
1143736188,46.67420959472656,11.47893238067627,2755.853759765625,0.81293785572052,0.7537055611610413,0
1144739407,46.55706787109375,13.158629417419434,2759.8798828125,0.8126862049102783,0.7521300911903381,0
1145753532,46.33389663696289,16.438331604003906,2765.10888671875,0.8123593926429749,0.7498476505279541,0
1146773424,45.457557678222656,30.35655975341797,2776.277099609375,0.8116613626480103,0.7473955154418945,0
1147795386,45.23040008544922,32.81154251098633,2786.3564453125,0.8110314607620239,0.7421911954879761,0
1148800415,45.80638122558594,22.0150089263916,2790.4208984375,0.8107774257659912,0.7365877628326416,0
1149807557,45.30503463745117,30.235931396484375,2799.3544921875,0.8102190494537354,0.7369557619094849,0
1150826915,44.62133026123047,40.754249572753906,2813.14599609375,0.8093570470809937,0.7348906993865967,0
1151836915,43.88784408569336,52.36334228515625,2829.95849609375,0.8083063364028931,0.735961377620697,0
1151836915,43.88784408569336,52.36334228515625,2829.95849609375,0.8083063364028931,0.735961377620697,0
1152849184,43.540557861328125,57.07716369628906,2847.318359375,0.8072212934494019,0.7353499531745911,0
1153860150,43.591854095458984,54.70035171508789,2862.1259765625,0.8062958717346191,0.7310893535614014,0
1154879553,43.76948547363281,50.57748031616211,2875.84423828125,0.8054384589195251,0.7283646464347839,0
1155894359,44.01122283935547,45.57744598388672,2887.594970703125,0.8047040104866028,0.725498616695404,0
1156902103,44.266845703125,40.55052185058594,2898.011962890625,0.8040529489517212,0.7228612899780273,0
1157916915,44.51715087890625,35.9443359375,2907.1416015625,0.8034823536872864,0.7213284373283386,0
1158922471,44.28776550292969,39.386749267578125,2918.622314453125,0.8027648329734802,0.7198508381843567,0
1159935563,43.96110534667969,44.63622283935547,2932.25537109375,0.801912784576416,0.7205219268798828,0
1160938262,43.730682373046875,47.8182373046875,2946.398193359375,0.801028847694397,0.7187742590904236,0
1160938262,43.730682373046875,47.8182373046875,2946.398193359375,0.801028847694397,0.7187742590904236,0
1161948888,43.88618850708008,45.012176513671875,2958.521728515625,0.8002710938453674,0.7196727395057678,0
1162960247,43.8895149230957,44.338802337646484,2970.81201171875,0.799502968788147,0.7173513770103455,0
1163962634,43.85929489135742,44.268165588378906,2983.2412109375,0.7987261414527893,0.7151373624801636,0
1164979438,43.856807708740234,43.70397186279297,2995.418212890625,0.7979650497436523,0.7125264406204224,0
1165986454,43.852481842041016,43.365020751953125,3007.527099609375,0.7972082495689392,0.71100914478302,0
1167005466,43.83955383300781,43.21217727661133,3019.62744140625,0.796451985836029,0.7096315026283264,0
1168007959,43.81489944458008,43.29190444946289,3031.794921875,0.7956914901733398,0.7084097266197205,0
1169016751,43.80143737792969,42.993892669677734,3043.837890625,0.794938862323761,0.7058308720588684,0
1170023633,43.81306457519531,42.65797805786133,3055.58203125,0.794204831123352,0.7056195139884949,0
1171029258,43.80803680419922,42.47389221191406,3067.473388671875,0.7934616208076477,0.7044861316680908,0
1172049046,43.764339447021484,42.860992431640625,3079.569580078125,0.7927055954933167,0.702825665473938,0
1173064920,43.75448226928711,42.78165054321289,3091.755859375,0.7919439673423767,0.7018327713012695,0
1174066627,43.744606018066406,42.56301498413086,3103.508056640625,0.7912094593048096,0.6997877955436707,0
1175086901,43.75768280029297,42.21235275268555,3115.426513671875,0.7904645204544067,0.699321985244751,0
1176088546,43.71564483642578,42.58951950073242,3127.287353515625,0.78972327709198,0.6975476741790771,0
1177092103,43.696380615234375,42.606971740722656,3139.126708984375,0.7889832854270935,0.6959304809570312,0
1177092103,43.696380615234375,42.606971740722656,3139.126708984375,0.7889832854270935,0.6959304809570312,0
1178096070,43.6707649230957,42.76594543457031,3151.15576171875,0.7882314920425415,0.6945205330848694,0
1179107765,43.6463737487793,42.887451171875,3163.255615234375,0.7874752283096313,0.6930215358734131,0
1180114599,43.685401916503906,42.32289123535156,3174.896728515625,0.7867476940155029,0.6938999891281128,0
1181125310,43.64500045776367,42.74535369873047,3186.977783203125,0.7859926223754883,0.6924957633018494,0
1182141240,43.60300827026367,43.03669357299805,3199.30859375,0.7852219343185425,0.6901194453239441,0
1183163563,43.55002975463867,43.781105041503906,3211.824951171875,0.7844396829605103,0.6895344257354736,0
1184170586,43.51793670654297,44.055580139160156,3224.210693359375,0.7836655378341675,0.6883059740066528,0
1185178814,43.52667236328125,43.589317321777344,3236.334228515625,0.7829078435897827,0.6865322589874268,0
1186197355,43.35022735595703,46.671470642089844,3249.898193359375,0.7820600867271423,0.6878944039344788,0
1187220511,43.200931549072266,48.755836486816406,3264.380615234375,0.7811549305915833,0.6863791346549988,0
1188235337,43.22179412841797,48.026390075683594,3277.710205078125,0.7803218364715576,0.6848652958869934,0
1189243092,43.2189826965332,47.698116302490234,3291.037109375,0.7794889211654663,0.6832253932952881,0
1190258861,43.126224517822266,49.02678298950195,3305.00146484375,0.7786161303520203,0.6826232075691223,0
1191261516,43.08826446533203,49.310585021972656,3318.8095703125,0.7777531147003174,0.6812979578971863,0
1192276624,43.108192443847656,48.41517639160156,3332.427490234375,0.7769019603729248,0.6783928275108337,0
1193287156,43.26248550415039,45.446388244628906,3344.485595703125,0.7761483788490295,0.676065981388092,0
1194307837,43.28485870361328,44.747188568115234,3357.04443359375,0.7753634452819824,0.6739326119422913,0
1195318781,43.283775329589844,44.84803009033203,3369.523681640625,0.7745834589004517,0.674494743347168,0
1196333730,43.30954360961914,44.30721664428711,3381.98095703125,0.7738049030303955,0.6736913323402405,0
1197353380,43.314327239990234,44.12412643432617,3394.32080078125,0.7730336785316467,0.672892153263092,0
1198363474,43.3031005859375,44.0391731262207,3406.657470703125,0.7722626328468323,0.6709555387496948,0
1199367149,43.24180221557617,44.87282180786133,3419.4130859375,0.7714654207229614,0.6696635484695435,0
1200385423,43.14871597290039,46.44621658325195,3432.752197265625,0.7706316709518433,0.6699916124343872,0
1201385768,43.074058532714844,47.60127258300781,3446.205322265625,0.7697908878326416,0.6698191165924072,0
1202388607,43.07663345336914,47.19111633300781,3459.426513671875,0.7689645290374756,0.6678417921066284,0
1203392240,43.06824493408203,46.86154556274414,3472.367431640625,0.7681557536125183,0.6650475263595581,0
1204407170,43.06966018676758,46.68976593017578,3485.4755859375,0.7673364877700806,0.6643458604812622,0
1204407170,43.06966018676758,46.68976593017578,3485.4755859375,0.7673364877700806,0.6643458604812622,0
1205410000,43.05570602416992,46.5782356262207,3498.509765625,0.7665218114852905,0.6622524261474609,0
1206421711,43.25286102294922,42.81440734863281,3510.0439453125,0.765800952911377,0.659062922000885,0
1207440688,43.60478210449219,36.50619888305664,3519.09619140625,0.765235185623169,0.6550585627555847,0
1208460465,44.64716720581055,18.82889747619629,3520.92578125,0.7651208639144897,0.6497465968132019,0
